district_clean,age_5_17,age_18_greater,bio_age_5_17,bio_age_17_,demo_age_5_17,demo_age_17_,Total_Enrolment,Total_Updates,Friction_Score,Unprotected_Kids_Count,Child_Risk_Score,Cluster_Label,District_Standard,Latitude,Longitude
Adilabad,748.0,4.0,57131.0,75190.0,9009.0,66292.0,752.0,207622.0,27609.3085106383,-56383.0,0.0,1,Adilabad,19.67203,78.5359
Agar Malwa,421.0,29.0,5721.0,11092.0,965.0,8919.0,450.0,26697.0,5932.666666666667,-5300.0,0.0,0,Agar Malwa,23.82502357,76.07296927
Agra,12691.0,905.0,152308.0,82740.0,18477.0,157476.0,13596.0,411001.0,3022.955280964989,-139617.0,0.0,0,Agra,27.19219,78.00005
Ahmedabad,8001.0,847.0,166849.0,254323.0,32052.0,243592.0,8848.0,696816.0,7875.406871609404,-158848.0,0.0,0,,,
Ahmednagar,2560.0,157.0,165848.0,203569.0,8714.0,226966.0,2717.0,605097.0,22270.776591829224,-163288.0,0.0,0,Ahmednagar,19.09211,74.73842
Aizawl,236.0,61.0,26633.0,11044.0,1533.0,11359.0,297.0,50569.0,17026.599326599327,-26397.0,0.0,0,Aizawl,23.72894,92.71791
Ajmer,2787.0,148.0,78270.0,63588.0,12323.0,111713.0,2935.0,265894.0,9059.420783645655,-75483.0,0.0,0,Ajmer,26.46554,74.63173
Akola,693.0,49.0,53986.0,131099.0,2889.0,59193.0,742.0,247167.0,33310.91644204852,-53293.0,0.0,1,Akola,20.70535,77.00218
Alappuzha,892.0,131.0,34603.0,53026.0,2640.0,34195.0,1023.0,124464.0,12166.568914956011,-33711.0,0.0,0,Alappuzha,9.5013,76.33233
Aligarh,11776.0,586.0,144160.0,55340.0,15788.0,170674.0,12362.0,385962.0,3122.1646982688885,-132384.0,0.0,0,Aligarh,27.88636,78.07375
Alipurduar,1714.0,438.0,3735.0,3890.0,1375.0,9459.0,2152.0,18459.0,857.7602230483272,-2021.0,0.0,0,Alipurduar,26.51644,89.53307
Alirajpur,3390.0,369.0,33490.0,28643.0,2001.0,19593.0,3759.0,83727.0,2227.3743016759777,-30100.0,0.0,0,Alirajpur,22.30594,74.35548
Alluri Sitharama Raju,116.0,34.0,8438.0,10169.0,1569.0,11302.0,150.0,31478.0,20985.33333333333,-8322.0,0.0,0,,,
Almora,131.0,8.0,16853.0,15556.0,1843.0,13943.0,139.0,48195.0,34672.661870503594,-16722.0,0.0,1,Almora,29.59681,79.65171
Alwar,7314.0,305.0,124960.0,98489.0,15411.0,129333.0,7619.0,368193.0,4832.563328520803,-117646.0,0.0,0,Alwar,27.55619,76.61238
Ambala,122.0,33.0,26591.0,46165.0,3958.0,29284.0,155.0,105998.0,68385.80645161291,-26469.0,0.0,1,Ambala,30.36099,76.79782
Ambedkar Nagar,4096.0,50.0,53320.0,33900.0,8036.0,67720.0,4146.0,162976.0,3930.921369995176,-49224.0,0.0,0,Ambedkar Nagar,26.420155,82.67087086
Amethi,3251.0,56.0,57942.0,35329.0,7282.0,68998.0,3307.0,169551.0,5127.033565164802,-54691.0,0.0,0,Amethi,26.15687,81.80528
Amravati,1025.0,107.0,103569.0,234714.0,5974.0,90217.0,1132.0,434474.0,38381.09540636042,-102544.0,0.0,1,Amravati,20.93333,77.75
Amreli,587.0,246.0,33978.0,34536.0,2578.0,25310.0,833.0,96402.0,11572.869147659065,-33391.0,0.0,0,Amreli,21.60517,71.21625
Amritsar,1775.0,247.0,56802.0,98206.0,6399.0,92676.0,2022.0,254083.0,12565.924826904056,-55027.0,0.0,0,Amritsar,31.63347,74.87507
Amroha,2499.0,61.0,64922.0,27927.0,7283.0,83625.0,2560.0,183757.0,7178.0078125,-62423.0,0.0,0,Amroha,28.87696,78.46851
Anand,828.0,536.0,50966.0,62729.0,3523.0,35626.0,1364.0,152844.0,11205.571847507332,-50138.0,0.0,0,Anand,22.55251,72.9552
Anantapur,636.0,10.0,190449.0,96850.0,29860.0,124855.0,646.0,442014.0,68423.21981424149,-189813.0,0.0,1,Anantapur,14.68352,77.58195
Anantnag,341.0,35.0,26948.0,20621.0,5246.0,30320.0,376.0,83135.0,22110.37234042553,-26607.0,0.0,0,Anantnag,33.72988,75.15084
Angul,451.0,14.0,32800.0,33365.0,4102.0,27189.0,465.0,97456.0,20958.279569892475,-32349.0,0.0,0,,,
Annamayya,48.0,105.0,5790.0,3922.0,5789.0,27845.0,153.0,43346.0,28330.71895424837,-5742.0,0.0,1,,,
Anuppur,349.0,13.0,31994.0,39356.0,3847.0,22348.0,362.0,97545.0,26946.132596685085,-31645.0,0.0,1,Anuppur,23.11566,81.69611
Araria,5515.0,125.0,72533.0,82911.0,9001.0,146314.0,5640.0,310759.0,5509.91134751773,-67018.0,0.0,0,Araria,26.13289,87.45705
Ariyalur,405.0,80.0,31344.0,46129.0,4536.0,18815.0,485.0,100824.0,20788.453608247422,-30939.0,0.0,0,Ariyalur,11.13938,79.08428
Arvalli,322.0,117.0,19089.0,10580.0,1810.0,6286.0,439.0,37765.0,8602.505694760821,-18767.0,0.0,0,,,
Arwal,3020.0,34.0,12094.0,18610.0,2232.0,25538.0,3054.0,58474.0,1914.6692861820568,-9074.0,0.0,0,Arwal,25.24546,84.6638
Ashok Nagar,1285.0,167.0,44837.0,29539.0,6092.0,38925.0,1452.0,119393.0,8222.658402203857,-43552.0,0.0,0,,,
Ashoknagar,1323.0,94.0,0.0,0.0,0.0,0.0,1417.0,0.0,0.0,1323.0,100.0,0,Ashoknagar,24.5761,77.73067
Auraiya,1547.0,17.0,43639.0,19543.0,5621.0,46178.0,1564.0,114981.0,7351.726342710998,-42092.0,0.0,0,Auraiya,26.46031,79.51097
Ayodhya,3505.0,35.0,68854.0,33453.0,8545.0,76711.0,3540.0,187563.0,5298.389830508474,-65349.0,0.0,0,Ayodhya,26.79254,82.20021
Azamgarh,13577.0,279.0,95316.0,78082.0,17812.0,141977.0,13856.0,333187.0,2404.64058891455,-81739.0,0.0,0,Azamgarh,26.06832,83.18358
Badgam,192.0,1.0,4702.0,9439.0,892.0,11227.0,193.0,26260.0,13606.21761658031,-4510.0,0.0,0,,,
Bagalkot,931.0,84.0,40323.0,38536.0,14952.0,38905.0,1015.0,132716.0,13075.467980295569,-39392.0,0.0,0,,,
Baghpat,3203.0,154.0,37736.0,20293.0,5209.0,49702.0,3357.0,112940.0,3364.313375037236,-34533.0,0.0,0,Baghpat,28.94517,77.22075
Bahraich,22360.0,2304.0,131149.0,49929.0,10401.0,119296.0,24664.0,310775.0,1260.0348686344469,-108789.0,0.0,0,Bahraich,27.57684,81.60251
Baksa,1179.0,400.0,11602.0,5853.0,1346.0,15666.0,1579.0,34467.0,2182.837238758708,-10423.0,0.0,0,Baksa,26.64715,91.28663
Balaghat,540.0,28.0,72713.0,54049.0,13036.0,66256.0,568.0,206054.0,36277.11267605634,-72173.0,0.0,1,Balaghat,21.81664,80.18473
Balangir,1032.0,56.0,48798.0,52247.0,5240.0,37354.0,1088.0,143639.0,13202.113970588234,-47766.0,0.0,0,Balangir,20.7064,83.48973
Baleshwar,1399.0,4.0,66820.0,62690.0,9035.0,46466.0,1403.0,185011.0,13186.813970064148,-65421.0,0.0,0,Baleshwar,21.50096,86.91808
Ballari,863.0,65.0,54195.0,51412.0,8308.0,43471.0,928.0,157386.0,16959.69827586207,-53332.0,0.0,0,Ballari,15.14468,76.92893
Ballia,5860.0,37.0,77756.0,55249.0,12808.0,92140.0,5897.0,237953.0,4035.153467865016,-71896.0,0.0,0,Ballia,25.75835,84.14805
Baloda Bazar,562.0,33.0,53691.0,87056.0,8282.0,107988.0,595.0,257017.0,43196.13445378152,-53129.0,0.0,1,Baloda Bazar,21.65707,82.15973
Balrampur,9435.0,305.0,86736.0,67619.0,8860.0,129517.0,9740.0,292732.0,3005.4620123203285,-77301.0,0.0,0,,,
Banaskantha,12500.0,2417.0,74074.0,78230.0,9811.0,65869.0,14917.0,227984.0,1528.3502044647048,-61574.0,0.0,0,,,
Banda,5563.0,203.0,58396.0,34095.0,5285.0,64150.0,5766.0,161926.0,2808.2899757197365,-52833.0,0.0,0,Banda,25.47758,80.33491
Bandipore,308.0,43.0,10653.0,9720.0,2600.0,13294.0,351.0,36267.0,10332.478632478633,-10345.0,0.0,0,Bandipore,34.41785,74.64124
Bangalore,15135.0,7607.0,195853.0,300201.0,42410.0,313356.0,22742.0,851820.0,3745.580863600387,-180718.0,0.0,0,,,
Bangalore Rural,267.0,126.0,18760.0,19275.0,5713.0,42521.0,393.0,86269.0,21951.399491094147,-18493.0,0.0,0,,,
Banka,4797.0,79.0,49854.0,48373.0,7434.0,90686.0,4876.0,196347.0,4026.80475799836,-45057.0,0.0,0,Banka,24.88537,86.92398
Bankura,2122.0,150.0,53009.0,55040.0,9441.0,136386.0,2272.0,253876.0,11174.11971830986,-50887.0,0.0,0,Bankura,23.23241,87.0716
Banswara,3030.0,30.0,52757.0,40954.0,5054.0,96240.0,3060.0,195005.0,6372.712418300654,-49727.0,0.0,0,Banswara,23.55173,74.44428
Barabanki,4140.0,144.0,115212.0,54254.0,8890.0,106037.0,4284.0,284393.0,6638.492063492064,-111072.0,0.0,0,,,
Baramula,532.0,64.0,28536.0,33399.0,5160.0,31635.0,596.0,98730.0,16565.436241610736,-28004.0,0.0,0,,,
Baran,1658.0,77.0,41044.0,39212.0,6373.0,72385.0,1735.0,159014.0,9165.07204610951,-39386.0,0.0,0,Baran,25.09606,76.50895
Bardhaman,3434.0,17.0,81476.0,113830.0,10222.0,183428.0,3451.0,388956.0,11270.820052158791,-78042.0,0.0,0,,,
Bareilly,10017.0,607.0,166397.0,68411.0,21442.0,220300.0,10624.0,476550.0,4485.598644578313,-156380.0,0.0,0,Bareilly,28.35441,79.41633
Bargarh,825.0,3.0,42130.0,39677.0,4584.0,30887.0,828.0,117278.0,14164.00966183575,-41305.0,0.0,0,Bargarh,21.33767,83.62123
Barmer,5233.0,96.0,114905.0,81860.0,9913.0,101808.0,5329.0,308486.0,5788.815912929255,-109672.0,0.0,0,Barmer,25.75199,71.41381
Barpeta,3306.0,532.0,66392.0,29029.0,4978.0,54164.0,3838.0,154563.0,4027.175612298072,-63086.0,0.0,0,Barpeta,26.31282,91.00251
Barwani,8355.0,667.0,78193.0,65234.0,12569.0,70190.0,9022.0,226186.0,2507.0494347151407,-69838.0,0.0,0,Barwani,22.03193,74.90409
Bastar,1808.0,6.0,27648.0,66736.0,9378.0,70053.0,1814.0,173815.0,9581.86328555678,-25840.0,0.0,0,Bastar,19.20758,81.93408
Basti,5216.0,80.0,69272.0,39929.0,8964.0,75846.0,5296.0,194011.0,3663.3496978851967,-64056.0,0.0,0,Basti,26.79684,82.73989
Bathinda,298.0,18.0,42639.0,54101.0,2044.0,35376.0,316.0,134160.0,42455.696202531646,-42341.0,0.0,1,Bathinda,30.20747,74.93893
Begusarai,5045.0,58.0,72549.0,74659.0,13270.0,119720.0,5103.0,280198.0,5490.84852047815,-67504.0,0.0,0,Begusarai,25.42442,86.13367
Belagavi,1502.0,122.0,97171.0,92899.0,25085.0,92258.0,1624.0,307413.0,18929.371921182264,-95669.0,0.0,0,Belagavi,15.86704,74.51162
Bemetara,302.0,11.0,34486.0,77224.0,4199.0,54494.0,313.0,170403.0,54441.853035143766,-34184.0,0.0,1,Bemetara,21.7192,81.5334
Bengaluru Rural,730.0,621.0,5.0,5.0,8.0,71.0,1351.0,89.0,6.587712805329386,725.0,99.31506849315068,0,Bengaluru Rural,13.22323382,77.57396487
Bengaluru South,183.0,5.0,23.0,123.0,326.0,3388.0,188.0,3860.0,2053.191489361702,160.0,87.43169398907104,0,,,
Betul,1207.0,130.0,69579.0,86243.0,10942.0,37304.0,1337.0,204068.0,15263.12640239342,-68372.0,0.0,0,Betul,21.90316,77.90004
Bhadohi,2871.0,8.0,48369.0,26354.0,7372.0,53868.0,2879.0,135963.0,4722.57728377909,-45498.0,0.0,0,Bhadohi,25.39452,82.56855
Bhadradri Kothagudem,682.0,39.0,11882.0,9721.0,5559.0,28170.0,721.0,55332.0,7674.341192787794,-11200.0,0.0,0,Bhadradri Kothagudem,17.67072874,80.7063695
Bhadrak,1176.0,14.0,53061.0,44619.0,7114.0,35536.0,1190.0,140330.0,11792.436974789916,-51885.0,0.0,0,Bhadrak,21.06327,86.49953
Bhagalpur,10229.0,377.0,72409.0,75905.0,15385.0,139641.0,10606.0,303340.0,2860.079200452574,-62180.0,0.0,0,Bhagalpur,25.24446,86.97183
Bharatpur,6643.0,175.0,78011.0,63144.0,9983.0,95080.0,6818.0,246218.0,3611.29363449692,-71368.0,0.0,0,Bharatpur,27.21087,77.48153
Bharuch,508.0,98.0,38361.0,38017.0,6975.0,42831.0,606.0,126184.0,20822.44224422442,-37853.0,0.0,0,Bharuch,21.69482,72.9805
Bhavnagar,1309.0,445.0,65784.0,75368.0,6530.0,51332.0,1754.0,199014.0,11346.294184720638,-64475.0,0.0,0,Bhavnagar,21.77524,72.14925
Bhilwara,3035.0,183.0,63856.0,56163.0,7046.0,90693.0,3218.0,217758.0,6766.8738346799255,-60821.0,0.0,0,Bhilwara,25.34707,74.64081
Bhind,4845.0,639.0,51439.0,31926.0,8411.0,49605.0,5484.0,141381.0,2578.063457330416,-46594.0,0.0,0,Bhind,26.56707,78.78545
Bhiwani,152.0,16.0,37865.0,57760.0,4004.0,30276.0,168.0,129905.0,77324.40476190476,-37713.0,0.0,1,Bhiwani,28.79304,76.13968
Bhojpur,10115.0,106.0,39485.0,57511.0,10707.0,131634.0,10221.0,239337.0,2341.6201937188143,-29370.0,0.0,0,Bhojpur,25.47398182,84.53652323
Bhopal,1452.0,154.0,89809.0,96629.0,10700.0,80164.0,1606.0,277302.0,17266.62515566625,-88357.0,0.0,0,Bhopal,23.26466,77.40521
Bid,2590.0,270.0,114597.0,150790.0,9049.0,174020.0,2860.0,448456.0,15680.27972027972,-112007.0,0.0,0,,,
Bidar,896.0,64.0,38406.0,41302.0,6398.0,36661.0,960.0,122767.0,12788.229166666666,-37510.0,0.0,0,Bidar,17.90802,77.51524
Bijnor,3843.0,73.0,143040.0,74008.0,17345.0,209514.0,3916.0,443907.0,11335.725229826354,-139197.0,0.0,0,Bijnor,29.3732,78.13565
Bikaner,5620.0,199.0,62218.0,68653.0,9014.0,72638.0,5819.0,212523.0,3652.225468293521,-56598.0,0.0,0,Bikaner,28.01649,73.31183
Bilaspur,1446.0,19.0,77078.0,139865.0,13821.0,146280.0,1465.0,377044.0,25736.79180887372,-75632.0,0.0,1,Bilaspur,22.0785,82.14016
Birbhum,2041.0,107.0,47630.0,62564.0,11252.0,140111.0,2148.0,261557.0,12176.769087523277,-45589.0,0.0,0,Birbhum,23.95371749,87.66553993
Bishnupur,559.0,42.0,19678.0,10631.0,5183.0,36872.0,601.0,72364.0,12040.599001663892,-19119.0,0.0,0,Bishnupur,23.06428,87.31048
Biswanath,464.0,76.0,6159.0,3389.0,844.0,10181.0,540.0,20573.0,3809.814814814815,-5695.0,0.0,0,Biswanath,26.74382,93.16238
Bokaro,2278.0,17.0,45932.0,62500.0,4424.0,66249.0,2295.0,179105.0,7804.139433551198,-43654.0,0.0,0,Bokaro,23.66934,86.15161
Bongaigaon,626.0,225.0,24633.0,11975.0,3318.0,35806.0,851.0,75732.0,8899.177438307874,-24007.0,0.0,0,Bongaigaon,26.46936,90.56083
Botad,474.0,171.0,10356.0,5900.0,1463.0,6082.0,645.0,23801.0,3690.077519379845,-9882.0,0.0,0,Botad,22.16917,71.66671
Boudh,278.0,2.0,13380.0,15772.0,1411.0,8906.0,280.0,39469.0,14096.07142857143,-13102.0,0.0,0,Boudh,20.83858,84.32236
Budaun,7407.0,349.0,77268.0,33050.0,14396.0,156943.0,7756.0,281657.0,3631.472408457968,-69861.0,0.0,0,Budaun,28.03643,79.12301
Bulandshahr,7591.0,209.0,134040.0,47012.0,18719.0,156701.0,7800.0,356472.0,4570.153846153846,-126449.0,0.0,0,Bulandshahr,28.40974,77.85006
Buldhana,1205.0,142.0,87702.0,167536.0,4522.0,132591.0,1347.0,392351.0,29127.765404602826,-86497.0,0.0,1,Buldhana,20.58333,76.41667
Bundi,1334.0,124.0,32954.0,29903.0,4316.0,44385.0,1458.0,111558.0,7651.440329218107,-31620.0,0.0,0,Bundi,25.43425,75.6366
Burhanpur,2759.0,388.0,33915.0,40226.0,3248.0,13295.0,3147.0,90684.0,2881.601525262154,-31156.0,0.0,0,Burhanpur,21.30868,76.23026
Buxar,4648.0,64.0,24831.0,32197.0,7052.0,66850.0,4712.0,130930.0,2778.6502546689303,-20183.0,0.0,0,Buxar,25.57225,83.97208
Cachar,4513.0,1527.0,42167.0,23978.0,5078.0,52941.0,6040.0,124164.0,2055.6953642384105,-37654.0,0.0,0,Cachar,24.81139572,92.85407642
Central Delhi,993.0,193.0,23688.0,30372.0,4432.0,44615.0,1186.0,103107.0,8693.676222596965,-22695.0,0.0,0,Central Delhi,28.64711858,77.21977262
Champhai,269.0,91.0,11652.0,4316.0,576.0,5893.0,360.0,22437.0,6232.5,-11383.0,0.0,0,Champhai,23.47809,93.3261
Chamrajanagar,216.0,23.0,15916.0,13049.0,2226.0,12985.0,239.0,44176.0,18483.6820083682,-15700.0,0.0,0,,,
Chandauli,4986.0,175.0,61634.0,28911.0,10054.0,83550.0,5161.0,184149.0,3568.087579926371,-56648.0,0.0,0,Chandauli,25.26037,83.26768
Chandel,510.0,5.0,4719.0,3964.0,1247.0,7742.0,515.0,17672.0,3431.456310679612,-4209.0,0.0,0,Chandel,24.33938,94.00621
Chandigarh,211.0,36.0,49166.0,25296.0,13132.0,70204.0,247.0,157798.0,63885.82995951417,-48955.0,0.0,1,Chandigarh,30.7036,76.78967
Chandrapur,375.0,86.0,65688.0,147946.0,3249.0,108822.0,461.0,325705.0,70651.84381778742,-65313.0,0.0,1,Chandrapur,19.9665,79.29658
Changlang,304.0,13.0,5436.0,2747.0,690.0,4969.0,317.0,13842.0,4366.561514195583,-5132.0,0.0,0,Changlang,27.37421556,96.35447761
Charaideo,336.0,194.0,6096.0,2197.0,763.0,9150.0,530.0,18206.0,3435.094339622641,-5760.0,0.0,0,Charaideo,27.0587565,95.04605737
Chatra,2819.0,35.0,32491.0,35201.0,3989.0,43307.0,2854.0,114988.0,4029.011913104415,-29672.0,0.0,0,Chatra,24.20418,84.8719
Chengalpattu,319.0,72.0,3965.0,2283.0,2251.0,19282.0,391.0,27781.0,7105.115089514066,-3646.0,0.0,0,Chengalpattu,12.68225,79.98056
Chennai,2159.0,198.0,112682.0,120349.0,17927.0,130441.0,2357.0,381399.0,16181.544336020366,-110523.0,0.0,0,Chennai,13.08376,80.28256
Chhatarpur,5965.0,367.0,89515.0,69016.0,11821.0,68037.0,6332.0,238389.0,3764.829437776374,-83550.0,0.0,0,Chhatarpur,24.90855,79.59632
Chhatrapati Sambhajinagar,12416.0,468.0,158134.0,256740.0,21005.0,262342.0,12884.0,698221.0,5419.287488357653,-145718.0,0.0,0,,,
Chhindwara,625.0,48.0,63350.0,76841.0,16975.0,72447.0,673.0,229613.0,34117.830609212484,-62725.0,0.0,1,Chhindwara,22.05697,78.93958
Chhotaudepur,1303.0,589.0,18603.0,15199.0,1857.0,7774.0,1892.0,43433.0,2295.61310782241,-17300.0,0.0,0,Chhotaudepur,22.31334,74.01521
Chikkaballapur,296.0,14.0,21218.0,20715.0,4231.0,31990.0,310.0,78154.0,25210.967741935485,-20922.0,0.0,1,,,
Chikkamagaluru,206.0,38.0,16410.0,22070.0,2733.0,19552.0,244.0,60765.0,24903.68852459016,-16204.0,0.0,0,Chikkamagaluru,13.32335,75.77362
Chirang,1071.0,264.0,18078.0,9009.0,1175.0,12222.0,1335.0,40484.0,3032.50936329588,-17007.0,0.0,0,Chirang,26.6519383,90.62693595
Chitradurga,326.0,45.0,29756.0,31471.0,6123.0,41218.0,371.0,108568.0,29263.61185983827,-29430.0,0.0,1,Chitradurga,14.22049,76.39956
Chitrakoot,2436.0,14.0,42495.0,20237.0,3931.0,40616.0,2450.0,107279.0,4378.734693877552,-40059.0,0.0,0,Chitrakoot,25.1783,80.86903
Chittoor,659.0,43.0,168727.0,82711.0,28657.0,140979.0,702.0,421074.0,59982.05128205128,-168068.0,0.0,1,Chittoor,13.20604,79.08833
Chittorgarh,2230.0,129.0,36050.0,28786.0,5497.0,58392.0,2359.0,128725.0,5456.761339550657,-33820.0,0.0,0,Chittorgarh,24.88963,74.62403
Chumukedima,97.0,50.0,245.0,406.0,254.0,1583.0,147.0,2488.0,1692.517006802721,-148.0,0.0,0,,,
Churachandpur,3274.0,108.0,11461.0,7351.0,2734.0,16539.0,3382.0,38085.0,1126.1088113542282,-8187.0,0.0,0,Churachandpur,24.34813,93.70104
Churu,4732.0,160.0,67446.0,65778.0,8045.0,68052.0,4892.0,209321.0,4278.843008994277,-62714.0,0.0,0,Churu,28.30415,74.96718
Coimbatore,1804.0,43.0,75352.0,144370.0,13326.0,104412.0,1847.0,337460.0,18270.70925825664,-73548.0,0.0,0,Coimbatore,10.99415,76.96629
Cooch Behar,6418.0,439.0,22780.0,35585.0,10718.0,183228.0,6857.0,252311.0,3679.612075251568,-16362.0,0.0,0,,,
Cuddalore,1093.0,44.0,90307.0,77804.0,11218.0,70377.0,1137.0,249706.0,21961.82937554969,-89214.0,0.0,0,Cuddalore,11.74515,79.75896
Cuttack,1082.0,15.0,66530.0,74538.0,5928.0,44743.0,1097.0,191739.0,17478.486782133088,-65448.0,0.0,0,Cuttack,20.46653,85.89615
Dadra And Nagar Haveli,141.0,27.0,0.0,0.0,0.0,0.0,168.0,0.0,0.0,141.0,100.0,0,,,
Dahod,11221.0,1947.0,62404.0,68987.0,5111.0,36037.0,13168.0,172539.0,1310.2900972053465,-51183.0,0.0,0,,,
Dakshin Dinajpur,1396.0,133.0,21905.0,24879.0,5077.0,86020.0,1529.0,137881.0,9017.724002616087,-20509.0,0.0,0,Dakshin Dinajpur,25.36649512,88.57396563
Dakshina Kannada,530.0,79.0,38932.0,39119.0,7839.0,48563.0,609.0,134453.0,22077.668308702792,-38402.0,0.0,0,Dakshina Kannada,12.86767344,75.25150721
Damoh,938.0,47.0,74879.0,59604.0,7014.0,48440.0,985.0,189937.0,19282.944162436543,-73941.0,0.0,0,Damoh,23.83571,79.44359
Dang,365.0,236.0,12787.0,15163.0,1477.0,5104.0,601.0,34531.0,5745.59068219634,-12422.0,0.0,0,,,
Dantewada,298.0,24.0,13391.0,32748.0,2107.0,6187.0,322.0,54433.0,16904.658385093167,-13093.0,0.0,0,Dantewada,18.89996,81.34823
Darbhanga,5677.0,71.0,93323.0,117057.0,12315.0,141613.0,5748.0,364308.0,6337.995824634655,-87646.0,0.0,0,Darbhanga,26.15516,85.89044
Darjeeling,2768.0,775.0,14322.0,28366.0,2815.0,59093.0,3543.0,104596.0,2952.1874117979114,-11554.0,0.0,0,,,
Darrang,1914.0,1291.0,16240.0,10025.0,3187.0,25132.0,3205.0,54584.0,1703.0889235569423,-14326.0,0.0,0,Darrang,26.47304421,92.02970031
Datia,1805.0,43.0,27648.0,19386.0,5168.0,31277.0,1848.0,83479.0,4517.2619047619055,-25843.0,0.0,0,Datia,25.66513,78.46092
Dausa,1807.0,49.0,56018.0,50312.0,6047.0,44220.0,1856.0,156597.0,8437.338362068966,-54211.0,0.0,0,Dausa,26.89966,76.33038
Davangere,398.0,45.0,40676.0,55007.0,5641.0,31318.0,443.0,132642.0,29941.76072234763,-40278.0,0.0,1,,,
Dehradun,1554.0,134.0,65769.0,63511.0,7573.0,75049.0,1688.0,211902.0,12553.436018957344,-64215.0,0.0,0,Dehradun,30.3097,78.0489
Deoghar,3679.0,127.0,33194.0,34232.0,4022.0,56038.0,3806.0,127486.0,3349.605885444036,-29515.0,0.0,0,Deoghar,24.48909,86.6995
Deoria,5443.0,114.0,78834.0,59779.0,12422.0,96829.0,5557.0,247864.0,4460.39229800252,-73391.0,0.0,0,Deoria,26.50249,83.77917
Devbhumi Dwarka,422.0,223.0,17817.0,7647.0,835.0,5751.0,645.0,32050.0,4968.992248062015,-17395.0,0.0,0,Devbhumi Dwarka,22.12845213,69.45553415
Dewas,1958.0,91.0,56452.0,63449.0,5450.0,41799.0,2049.0,167150.0,8157.637872132747,-54494.0,0.0,0,Dewas,22.96585,76.05526
Dhalai,611.0,36.0,21140.0,14475.0,1348.0,14469.0,647.0,51432.0,7949.304482225656,-20529.0,0.0,0,Dhalai,23.84497451,91.92689498
Dhanbad,4061.0,92.0,52546.0,98523.0,5776.0,102021.0,4153.0,258866.0,6233.2289910907775,-48485.0,0.0,0,Dhanbad,23.79596,86.43061
Dhar,3553.0,425.0,77936.0,68455.0,12026.0,75429.0,3978.0,233846.0,5878.481649069884,-74383.0,0.0,0,Dhar,22.59529,75.30061
Dharashiv,741.0,37.0,62809.0,92889.0,3254.0,108767.0,778.0,267719.0,34411.182519280206,-62068.0,0.0,1,,,
Dharmapuri,851.0,48.0,67201.0,37657.0,7202.0,34178.0,899.0,146238.0,16266.74082313682,-66350.0,0.0,0,Dharmapuri,18.94365,79.09492
Dharwad,351.0,19.0,41268.0,46553.0,11753.0,43366.0,370.0,142940.0,38632.43243243243,-40917.0,0.0,1,Dharwad,15.45111,75.00517
Dhemaji,1846.0,1191.0,12494.0,8236.0,1927.0,20422.0,3037.0,43079.0,1418.4721764899573,-10648.0,0.0,0,Dhemaji,27.47506,94.5616
Dhenkanal,543.0,8.0,37852.0,39795.0,4482.0,25501.0,551.0,107630.0,19533.57531760436,-37309.0,0.0,0,Dhenkanal,20.65297,85.59907
Dholpur,2757.0,150.0,47827.0,26990.0,8870.0,69173.0,2907.0,152860.0,5258.341933264534,-45070.0,0.0,0,Dholpur,26.69286,77.87968
Dhubri,3849.0,365.0,40373.0,19102.0,7185.0,73614.0,4214.0,140274.0,3328.7612719506405,-36524.0,0.0,0,Dhubri,26.02571,89.9721
Dhule,4842.0,519.0,72244.0,125610.0,3645.0,58263.0,5361.0,259762.0,4845.401977243052,-67402.0,0.0,0,Dhule,20.90286,74.7725
Dibrugarh,1675.0,1492.0,14970.0,11765.0,1874.0,24645.0,3167.0,53254.0,1681.5282601831384,-13295.0,0.0,0,Dibrugarh,27.48439,94.92311
Dima Hasao,103.0,28.0,11.0,14.0,16.0,264.0,131.0,305.0,232.82442748091609,92.0,89.32038834951457,0,Dima Hasao,25.37734217,93.032895
Dimapur,1802.0,276.0,9331.0,15892.0,817.0,7398.0,2078.0,33438.0,1609.1434071222332,-7529.0,0.0,0,Dimapur,25.91174,93.7217
Dindigul,1393.0,12.0,65029.0,121094.0,8508.0,49069.0,1405.0,243700.0,17345.195729537365,-63636.0,0.0,0,Dindigul,10.3621,77.96947
Dindori,249.0,1.0,33514.0,27962.0,8508.0,38909.0,250.0,108893.0,43557.2,-33265.0,0.0,1,Dindori,22.947,81.07506
Doda,1023.0,32.0,19429.0,17350.0,1109.0,10268.0,1055.0,48156.0,4564.549763033176,-18406.0,0.0,0,Doda,33.14455,75.54472
Dumka,2996.0,86.0,36526.0,39686.0,4019.0,55639.0,3082.0,135870.0,4408.5009733939005,-33530.0,0.0,0,Dumka,24.26838,87.24887
Dungarpur,2649.0,53.0,51452.0,35106.0,4330.0,90978.0,2702.0,181866.0,6730.792005921539,-48803.0,0.0,0,Dungarpur,23.84163,73.7144
Durg,520.0,47.0,76883.0,102968.0,10565.0,66584.0,567.0,257000.0,45326.278659612,-76363.0,0.0,1,Durg,21.19918,81.28967
East,153.0,2.0,2428.0,3095.0,406.0,5461.0,155.0,11390.0,7348.387096774193,-2275.0,0.0,0,,,
East Champaran,28442.0,1605.0,95935.0,116199.0,18227.0,229801.0,30047.0,460162.0,1531.4740240290212,-67493.0,0.0,0,,,
East Delhi,2458.0,223.0,53829.0,68976.0,24960.0,162101.0,2681.0,309866.0,11557.851547929877,-51371.0,0.0,0,East Delhi,28.62279335,77.29347145
East Garo Hills,3366.0,1674.0,975.0,1749.0,251.0,6094.0,5040.0,9069.0,179.9404761904762,2391.0,71.03386809269162,0,East Garo Hills,25.64193857,90.63532924
East Godavari,507.0,10.0,204904.0,96946.0,19090.0,136935.0,517.0,457875.0,88563.82978723405,-204397.0,0.0,2,East Godavari,16.96036,82.23809
East Jaintia Hills,2354.0,1796.0,2042.0,740.0,445.0,2949.0,4150.0,6176.0,148.81927710843374,312.0,13.254035683942226,0,East Jaintia Hills,25.27287118,92.46524111
East Khasi Hills,14606.0,9948.0,8982.0,12022.0,1876.0,14484.0,24554.0,37364.0,152.17072574733243,5624.0,38.50472408599206,0,East Khasi Hills,25.38602412,91.81170472
East Sikkim,136.0,19.0,2607.0,1482.0,349.0,3164.0,155.0,7602.0,4904.5161290322585,-2471.0,0.0,0,East Sikkim,27.33333,88.66667
East Singhbhum,2109.0,99.0,59424.0,76682.0,4140.0,56520.0,2208.0,196766.0,8911.503623188406,-57315.0,0.0,0,East Singhbhum,22.59238,86.48341
East Singhbum,546.0,53.0,0.0,0.0,0.0,0.0,599.0,0.0,0.0,546.0,100.0,0,,,
Eastern West Khasi Hills,226.0,589.0,2.0,6.0,49.0,257.0,815.0,314.0,38.52760736196319,224.0,99.1150442477876,0,,,
Ernakulam,1807.0,332.0,61215.0,87540.0,5733.0,60474.0,2139.0,214962.0,10049.649368863957,-59408.0,0.0,0,Ernakulam,10.08405614,76.54629706
Erode,1045.0,8.0,64193.0,83302.0,7821.0,60588.0,1053.0,215904.0,20503.703703703704,-63148.0,0.0,0,Erode,11.34065,77.71723
Etah,4345.0,159.0,63551.0,23878.0,6180.0,55711.0,4504.0,149320.0,3315.275310834814,-59206.0,0.0,0,Etah,27.57365,78.65228
Etawah,2865.0,116.0,51467.0,27628.0,6640.0,55440.0,2981.0,141175.0,4735.826903723583,-48602.0,0.0,0,Etawah,26.77615,79.02133
Faridabad,3225.0,323.0,58976.0,59975.0,19754.0,140801.0,3548.0,279506.0,7877.846674182638,-55751.0,0.0,0,Faridabad,28.39262,77.31268
Faridkot,99.0,10.0,15023.0,24389.0,826.0,13896.0,109.0,54134.0,49664.22018348624,-14924.0,0.0,1,Faridkot,30.65548,74.76948
Farrukhabad,2944.0,82.0,55262.0,21934.0,6288.0,63850.0,3026.0,147334.0,4868.935888962326,-52318.0,0.0,0,Farrukhabad,27.39134,79.5793
Fatehabad,92.0,10.0,29864.0,39930.0,4592.0,37378.0,102.0,111764.0,109572.54901960785,-29772.0,0.0,2,Fatehabad,27.02722,78.30065
Fatehgarh Sahib,144.0,13.0,17318.0,20081.0,932.0,14414.0,157.0,52745.0,33595.541401273884,-17174.0,0.0,1,,,
Fatehpur,5582.0,225.0,71340.0,46574.0,9425.0,97695.0,5807.0,225034.0,3875.219562596866,-65758.0,0.0,0,Fatehpur,27.17326,81.21653
Fazilka,271.0,10.0,29691.0,31704.0,2036.0,29626.0,281.0,93057.0,33116.37010676156,-29420.0,0.0,1,Fazilka,30.40896,74.03481
Ferozepur,162.0,5.0,26569.0,40241.0,2034.0,32685.0,167.0,101529.0,60795.80838323353,-26407.0,0.0,1,,,
Firozabad,4926.0,124.0,81603.0,32164.0,11620.0,127581.0,5050.0,252968.0,5009.267326732673,-76677.0,0.0,0,Firozabad,27.15211,78.39466
Gadag,359.0,20.0,23127.0,18938.0,8138.0,21453.0,379.0,71656.0,18906.5963060686,-22768.0,0.0,0,Gadag,15.43312,75.63545
Gadchiroli,268.0,22.0,38590.0,102075.0,2371.0,50327.0,290.0,193363.0,66676.89655172413,-38322.0,0.0,1,Gadchiroli,20.18259,80.00617
Gajapati,318.0,18.0,30085.0,28923.0,3255.0,18133.0,336.0,80396.0,23927.38095238095,-29767.0,0.0,0,Gajapati,19.17476522,84.16118689
Gandhinagar,837.0,738.0,33686.0,42878.0,6930.0,57658.0,1575.0,141152.0,8962.031746031747,-32849.0,0.0,0,Gandhinagar,23.24081,72.63733
Ganganagar,1276.0,42.0,46082.0,56446.0,5528.0,63690.0,1318.0,171746.0,13030.804248861912,-44806.0,0.0,0,Ganganagar,29.92009,73.87496
Ganjam,1044.0,9.0,96263.0,92599.0,12890.0,85949.0,1053.0,287701.0,27322.03228869896,-95219.0,0.0,1,Ganjam,19.38765,85.05012
Garhwa,1602.0,15.0,41950.0,63092.0,3503.0,38886.0,1617.0,147431.0,9117.56338899196,-40348.0,0.0,0,Garhwa,24.15887,83.80083
Gariyaband,229.0,6.0,16883.0,35205.0,1307.0,26292.0,235.0,79687.0,33909.36170212766,-16654.0,0.0,1,Gariyaband,20.63416,82.06133
Gaurella Pendra Marwahi,290.0,70.0,0.0,0.0,0.0,0.0,360.0,0.0,0.0,290.0,100.0,0,,,
Gautam Buddha Nagar,9318.0,637.0,49113.0,40328.0,15292.0,138699.0,9955.0,243432.0,2445.3239578101457,-39795.0,0.0,0,Gautam Buddha Nagar,28.36145,77.50703
Gaya,20244.0,435.0,85898.0,99274.0,19945.0,175229.0,20679.0,380346.0,1839.286232409691,-65654.0,0.0,0,Gaya,24.78497,84.99271
Ghaziabad,10693.0,393.0,103385.0,88637.0,20582.0,219179.0,11086.0,431783.0,3894.849359552589,-92692.0,0.0,0,Ghaziabad,28.66535,77.43915
Ghazipur,6894.0,71.0,91279.0,54413.0,16498.0,111342.0,6965.0,273532.0,3927.236180904523,-84385.0,0.0,0,Ghazipur,25.58333,83.58526
Gir Somnath,975.0,373.0,23900.0,12866.0,2323.0,9743.0,1348.0,48832.0,3622.551928783383,-22925.0,0.0,0,Gir Somnath,20.96406725,70.77707338
Giridih,6526.0,82.0,53614.0,56796.0,9740.0,115931.0,6608.0,236081.0,3572.654358353512,-47088.0,0.0,0,Giridih,24.18711,86.30464
Goalpara,2220.0,797.0,17021.0,10603.0,4325.0,36242.0,3017.0,68191.0,2260.2253894597284,-14801.0,0.0,0,Goalpara,26.16213,90.62291
Godda,2135.0,17.0,44532.0,36402.0,3785.0,53892.0,2152.0,138611.0,6441.031598513011,-42397.0,0.0,0,Godda,24.83211,87.2073
Golaghat,4047.0,1921.0,12369.0,7785.0,1998.0,25926.0,5968.0,48078.0,805.5965147453084,-8322.0,0.0,0,Golaghat,26.50722,93.97357
Gomati,204.0,11.0,11757.0,2945.0,1461.0,8300.0,215.0,24463.0,11378.13953488372,-11553.0,0.0,0,Gomati,23.52065062,91.63393258
Gonda,7494.0,328.0,99643.0,52432.0,10986.0,114930.0,7822.0,277991.0,3553.963180772181,-92149.0,0.0,0,Gonda,27.13582,81.95977
Gondia,112.0,6.0,35541.0,63246.0,3509.0,63092.0,118.0,165388.0,140159.3220338983,-35429.0,0.0,2,Gondia,21.45879,80.19625
Gopalganj,9649.0,196.0,46818.0,56666.0,8025.0,97842.0,9845.0,209351.0,2126.4702894870493,-37169.0,0.0,0,Gopalganj,26.46645,84.44284
Gorakhpur,12090.0,425.0,81386.0,96778.0,18079.0,140786.0,12515.0,337029.0,2693.0003995205752,-69296.0,0.0,0,Gorakhpur,26.75432,83.37554
Gumla,2524.0,94.0,33578.0,54300.0,3800.0,42953.0,2618.0,134631.0,5142.513368983957,-31054.0,0.0,0,Gumla,23.04153,84.54301
Guna,2249.0,66.0,80661.0,52225.0,5429.0,47524.0,2315.0,185839.0,8027.602591792656,-78412.0,0.0,0,Guna,24.64643,77.3109
Guntur,925.0,35.0,187665.0,104029.0,22026.0,155195.0,960.0,468915.0,48845.3125,-186740.0,0.0,1,Guntur,16.29974,80.45729
Gurdaspur,558.0,126.0,40136.0,79099.0,4847.0,67125.0,684.0,191207.0,27954.23976608187,-39578.0,0.0,1,Gurdaspur,32.04088,75.40136
Gurugram,1872.0,404.0,35245.0,35546.0,13524.0,105689.0,2276.0,190004.0,8348.154657293497,-33373.0,0.0,0,Gurugram,28.47717,77.06846
Gwalior,5602.0,830.0,69790.0,57330.0,11375.0,70344.0,6432.0,208839.0,3246.875,-64188.0,0.0,0,Gwalior,26.22011,78.1762
Hailakandi,1441.0,311.0,14201.0,6922.0,2253.0,19049.0,1752.0,42425.0,2421.5182648401824,-12760.0,0.0,0,Hailakandi,24.67881,92.56544
Hamirpur,1414.0,28.0,48037.0,30469.0,3869.0,45891.0,1442.0,128266.0,8895.00693481276,-46623.0,0.0,0,Hamirpur,25.96085,80.1453
Hanumakonda,182.0,11.0,6478.0,11133.0,3746.0,30928.0,193.0,52285.0,27090.67357512953,-6296.0,0.0,1,,,
Hanumangarh,1271.0,41.0,43250.0,53383.0,6898.0,70339.0,1312.0,173870.0,13252.286585365857,-41979.0,0.0,0,,,
Hapur,2771.0,41.0,39349.0,17406.0,4518.0,39764.0,2812.0,101037.0,3593.0654338549075,-36578.0,0.0,0,Hapur,28.72985,77.78068
Harda,490.0,18.0,21083.0,26858.0,1714.0,10547.0,508.0,60202.0,11850.787401574802,-20593.0,0.0,0,Harda,22.34385,77.08972
Hardoi,12290.0,312.0,150577.0,54520.0,11832.0,132119.0,12602.0,349048.0,2769.7825741945726,-138287.0,0.0,0,Hardoi,27.39491,80.13165
Haridwar,1243.0,52.0,88280.0,47251.0,6811.0,63276.0,1295.0,205618.0,15877.837837837838,-87037.0,0.0,0,Haridwar,29.94791,78.16025
Hassan,142.0,19.0,27002.0,20010.0,5817.0,33029.0,161.0,85858.0,53327.950310559005,-26860.0,0.0,1,Hassan,13.00344,76.10322
Hathras,2596.0,82.0,60241.0,20163.0,5978.0,54680.0,2678.0,141062.0,5267.438386855863,-57645.0,0.0,0,Hathras,27.59551,78.05201
Haveri,272.0,59.0,34540.0,35205.0,14439.0,44155.0,331.0,128339.0,38773.11178247735,-34268.0,0.0,1,Haveri,14.79276,75.39635
Hazaribag,208.0,0.0,1605.0,6129.0,391.0,9335.0,208.0,17460.0,8394.23076923077,-1397.0,0.0,0,,,
Hazaribagh,2048.0,31.0,38357.0,36575.0,5791.0,60854.0,2079.0,141577.0,6809.86050986051,-36309.0,0.0,0,Hazaribagh,23.99885,85.36735
Hingoli,1457.0,373.0,45691.0,71382.0,2729.0,93825.0,1830.0,213627.0,11673.606557377048,-44234.0,0.0,0,Hingoli,19.72169,77.15177
Hisar,289.0,18.0,53323.0,62544.0,6665.0,56541.0,307.0,179073.0,58329.96742671009,-53034.0,0.0,1,Hisar,29.15394,75.72294
Hojai,1607.0,155.0,15271.0,13731.0,2371.0,22937.0,1762.0,54310.0,3082.2928490351874,-13664.0,0.0,0,Hojai,26.00316,92.85383
Hooghly,3909.0,342.0,70440.0,90789.0,9416.0,173824.0,4251.0,344469.0,8103.246294989414,-66531.0,0.0,0,Hooghly,22.90877,88.39674
Hoshiarpur,401.0,218.0,33856.0,58908.0,3118.0,43431.0,619.0,139313.0,22506.13893376413,-33455.0,0.0,0,Hoshiarpur,31.53723,75.91269
Howrah,4046.0,148.0,48390.0,78734.0,6749.0,140968.0,4194.0,274841.0,6553.195040534097,-44344.0,0.0,0,Howrah,22.59631,88.25608
Hyderabad,6608.0,670.0,156784.0,177501.0,36317.0,216346.0,7278.0,586948.0,8064.688101126683,-150176.0,0.0,0,Hyderabad,17.3949,78.47073
INVALID,2.0,217.0,490.0,381.0,89.0,285.0,219.0,1245.0,568.4931506849315,-488.0,0.0,0,,,
Idukki,271.0,28.0,19715.0,28218.0,1528.0,13964.0,299.0,63425.0,21212.3745819398,-19444.0,0.0,0,Idukki,9.838750875,77.05881477
Imphal East,564.0,9.0,36938.0,22336.0,7534.0,48486.0,573.0,115294.0,20121.11692844677,-36374.0,0.0,0,Imphal East,24.70859576,94.08027
Imphal West,559.0,32.0,36009.0,25302.0,7316.0,52034.0,591.0,120661.0,20416.41285956007,-35450.0,0.0,0,Imphal West,24.7711428,93.86550462
Indore,5009.0,609.0,108940.0,112684.0,23118.0,163569.0,5618.0,408311.0,7267.906728373086,-103931.0,0.0,0,Indore,22.71622,75.86512
JAJPUR,456.0,49.0,20905.0,15643.0,2586.0,15996.0,505.0,55130.0,10916.831683168317,-20449.0,0.0,0,,,
Jabalpur,1713.0,101.0,82138.0,76526.0,9313.0,82738.0,1814.0,250715.0,13821.11356119074,-80425.0,0.0,0,Jabalpur,23.17416,79.93135
Jagatsinghapur,308.0,24.0,26341.0,22061.0,2502.0,13187.0,332.0,64091.0,19304.51807228916,-26033.0,0.0,0,Jagatsinghapur,20.26238,86.16382
Jagitial,98.0,9.0,6634.0,4111.0,1965.0,14334.0,107.0,27044.0,25274.766355140186,-6536.0,0.0,1,,,
Jahanabad,3827.0,141.0,15681.0,21749.0,4393.0,41968.0,3968.0,83791.0,2111.6683467741937,-11854.0,0.0,0,,,
Jaipur,8976.0,734.0,158293.0,197591.0,29544.0,245796.0,9710.0,631224.0,6500.762100926879,-149317.0,0.0,0,Jaipur,26.92591,75.80673
Jaisalmer,1120.0,51.0,25276.0,19701.0,2104.0,19280.0,1171.0,66361.0,5667.036720751495,-24156.0,0.0,0,Jaisalmer,26.91946,70.9143
Jajpur,506.0,2.0,28359.0,32040.0,3875.0,23096.0,508.0,87370.0,17198.818897637797,-27853.0,0.0,0,,,
Jalandhar,732.0,72.0,50422.0,90848.0,2995.0,48136.0,804.0,192401.0,23930.47263681592,-49690.0,0.0,0,Jalandhar,31.33081,75.59016
Jalaun,2641.0,125.0,46744.0,27938.0,4466.0,56207.0,2766.0,135355.0,4893.52856109906,-44103.0,0.0,0,Jalaun,26.1429,79.32559
Jalgaon,2579.0,227.0,148853.0,268531.0,7782.0,143294.0,2806.0,568460.0,20258.73129009266,-146274.0,0.0,0,Jalgaon,21.00292,75.56602
Jalna,944.0,19.0,71820.0,120872.0,4102.0,75438.0,963.0,272232.0,28269.15887850468,-70876.0,0.0,1,Jalna,19.84102,75.88636
Jalore,6058.0,247.0,51611.0,48195.0,4322.0,63404.0,6305.0,167532.0,2657.1292624900875,-45553.0,0.0,0,,,
Jalpaiguri,4442.0,538.0,32134.0,48509.0,8504.0,179007.0,4980.0,268154.0,5384.618473895582,-27692.0,0.0,0,Jalpaiguri,26.51667,88.73333
Jammu,835.0,36.0,45899.0,52900.0,2486.0,32630.0,871.0,133915.0,15374.856486796783,-45064.0,0.0,0,Jammu,32.70267,74.87843
Jamnagar,799.0,281.0,40890.0,40212.0,4166.0,41553.0,1080.0,126821.0,11742.685185185184,-40091.0,0.0,0,Jamnagar,22.46961,70.07358
Jamtara,1274.0,16.0,17787.0,21854.0,1682.0,31321.0,1290.0,72644.0,5631.3178294573645,-16513.0,0.0,0,Jamtara,23.96056,86.80218
Jamui,5029.0,160.0,46558.0,35599.0,5423.0,61497.0,5189.0,149077.0,2872.942763538254,-41529.0,0.0,0,Jamui,24.92142,86.22538
Jangoan,130.0,0.0,3951.0,3328.0,1561.0,15339.0,130.0,24179.0,18599.23076923077,-3821.0,0.0,0,,,
Janjgir-Champa,577.0,1.0,51981.0,129065.0,7208.0,105403.0,578.0,293657.0,50805.70934256056,-51404.0,0.0,1,,,
Jashpur,875.0,2.0,30250.0,44353.0,8700.0,62323.0,877.0,145626.0,16605.017103762828,-29375.0,0.0,0,Jashpur,22.88756,84.13841
Jaunpur,10237.0,216.0,109148.0,73932.0,19038.0,136703.0,10453.0,338821.0,3241.375681622501,-98911.0,0.0,0,Jaunpur,25.74508,82.68237
Jayashankar Bhupalpally,173.0,4.0,2077.0,2491.0,1380.0,14881.0,177.0,20829.0,11767.796610169493,-1904.0,0.0,0,,,
Jhabua,6570.0,332.0,50578.0,38148.0,3897.0,37565.0,6902.0,130188.0,1886.2358736598087,-44008.0,0.0,0,Jhabua,22.76992,74.59749
Jhajjar,100.0,10.0,24917.0,31722.0,3763.0,28621.0,110.0,89023.0,80930.0,-24817.0,0.0,1,Jhajjar,28.60767,76.65252
Jhalawar,2002.0,56.0,42460.0,37652.0,6231.0,74861.0,2058.0,161204.0,7833.04178814383,-40458.0,0.0,0,Jhalawar,24.58979,76.16001
Jhansi,2519.0,71.0,68211.0,43794.0,5591.0,66250.0,2590.0,183846.0,7098.301158301159,-65692.0,0.0,0,Jhansi,25.4486,78.56956
Jhargram,171.0,50.0,1747.0,2259.0,835.0,6423.0,221.0,11264.0,5096.83257918552,-1576.0,0.0,0,Jhargram,22.44972,86.99701
Jhunjhunu,1877.0,86.0,48623.0,63710.0,5971.0,51423.0,1963.0,169727.0,8646.306673458992,-46746.0,0.0,0,Jhunjhunu,28.12564,75.4004
Jodhpur,6724.0,928.0,114854.0,104179.0,11482.0,128488.0,7652.0,359003.0,4691.62310507057,-108130.0,0.0,0,Jodhpur,26.26694,73.03049
Jogulamba Gadwal,299.0,2.0,6006.0,5324.0,6843.0,26733.0,301.0,44906.0,14918.936877076414,-5707.0,0.0,0,Jogulamba Gadwal,16.0737437,77.77441436
Jorhat,1122.0,860.0,10704.0,5575.0,1266.0,18522.0,1982.0,36067.0,1819.7275479313823,-9582.0,0.0,0,Jorhat,26.76765,94.20651
Junagadh,568.0,92.0,33995.0,68677.0,3875.0,34170.0,660.0,140717.0,21320.757575757576,-33427.0,0.0,0,Junagadh,21.51966,70.45981
K.v. Rangareddy,3685.0,164.0,123072.0,125913.0,31651.0,165845.0,3849.0,446481.0,11599.92205767732,-119387.0,0.0,0,,,
Kabirdham,349.0,4.0,40569.0,52739.0,7665.0,86436.0,353.0,187409.0,53090.36827195467,-40220.0,0.0,1,Kabirdham,22.09087265,81.22484175
Kaimur,4724.0,85.0,37554.0,40636.0,5468.0,61682.0,4809.0,145340.0,3022.24994801414,-32830.0,0.0,0,,,
Kakinada,84.0,27.0,7141.0,4557.0,3621.0,24648.0,111.0,39967.0,36006.3063063063,-7057.0,0.0,1,,,
Kalaburagi,1305.0,87.0,66411.0,68191.0,10888.0,53031.0,1392.0,198521.0,14261.566091954024,-65106.0,0.0,0,Kalaburagi,17.33282,76.84033
Kalahandi,1071.0,64.0,42857.0,52067.0,5491.0,41904.0,1135.0,142319.0,12539.118942731278,-41786.0,0.0,0,Kalahandi,19.86827798,83.10903938
Kalimpong,184.0,153.0,442.0,281.0,204.0,2177.0,337.0,3104.0,921.0682492581602,-258.0,0.0,0,Kalimpong,27.067,88.47008
Kallakurichi,149.0,38.0,2550.0,2268.0,1585.0,9205.0,187.0,15608.0,8346.524064171123,-2401.0,0.0,0,,,
Kamareddy,144.0,2.0,7963.0,7278.0,3541.0,20904.0,146.0,39686.0,27182.191780821915,-7819.0,0.0,1,Kamareddy,18.33272,78.34374
Kamrup,3441.0,1044.0,30056.0,13196.0,3266.0,41318.0,4485.0,87836.0,1958.4392419175028,-26615.0,0.0,0,Kamrup,26.10524658,91.40129902
Kamrup Metropolitan,2055.0,1337.0,14584.0,12178.0,2308.0,23883.0,3392.0,52953.0,1561.114386792453,-12529.0,0.0,0,Kamrup Metropolitan,26.12051927,92.0061675
Kanchipuram,3443.0,88.0,120463.0,113465.0,19692.0,121609.0,3531.0,375229.0,10626.706315491365,-117020.0,0.0,0,,,
Kandhamal,440.0,8.0,28794.0,31145.0,4729.0,27316.0,448.0,91984.0,20532.14285714286,-28354.0,0.0,0,Kandhamal,20.12749474,84.04784113
Kanker,439.0,10.0,26645.0,56865.0,3980.0,38428.0,449.0,125918.0,28044.097995545657,-26206.0,0.0,1,Kanker,20.27343,81.49286
Kannauj,3455.0,100.0,49715.0,21938.0,6283.0,53404.0,3555.0,131340.0,3694.5147679324896,-46260.0,0.0,0,Kannauj,27.03157,79.92119
Kannur,1722.0,230.0,49177.0,70222.0,4639.0,53071.0,1952.0,177109.0,9073.206967213117,-47455.0,0.0,0,Kannur,11.87482,75.37628
Kanpur Dehat,3802.0,183.0,53708.0,21918.0,7310.0,64779.0,3985.0,147715.0,3706.775407779172,-49906.0,0.0,0,Kanpur Dehat,26.43949624,79.859545
Kanpur Nagar,12606.0,675.0,92823.0,88615.0,13567.0,156558.0,13281.0,351563.0,2647.1124162337173,-80217.0,0.0,0,Kanpur Nagar,26.38798088,80.21174087
Kanyakumari,227.0,18.0,49241.0,49939.0,10247.0,49127.0,245.0,158554.0,64715.91836734695,-49014.0,0.0,1,,,
Kapurthala,446.0,1213.0,18246.0,35857.0,771.0,13101.0,1659.0,67975.0,4097.347799879446,-17800.0,0.0,0,Kapurthala,31.37775,75.39097
Karauli,2670.0,109.0,49784.0,31187.0,7277.0,51169.0,2779.0,139417.0,5016.804605973372,-47114.0,0.0,0,Karauli,26.48425,77.01885
Karbi Anglong,4107.0,1082.0,25507.0,13699.0,2438.0,28683.0,5189.0,70327.0,1355.3093081518596,-21400.0,0.0,0,Karbi Anglong,26.0,93.5
Kargil,261.0,8.0,3559.0,2306.0,1209.0,3336.0,269.0,10410.0,3869.888475836432,-3298.0,0.0,0,Kargil,34.55159,76.13059
Karimganj,4903.0,594.0,24232.0,11414.0,4135.0,37279.0,5497.0,77060.0,1401.85555757686,-19329.0,0.0,0,Karimganj,24.86013,92.3765
Karimnagar,793.0,7.0,72907.0,80096.0,10360.0,77966.0,800.0,241329.0,30166.125,-72114.0,0.0,1,Karimnagar,18.43915,79.12856
Karnal,179.0,8.0,32424.0,61595.0,6828.0,42303.0,187.0,143150.0,76550.80213903743,-32245.0,0.0,1,Karnal,29.69197,76.98448
Karur,654.0,3.0,27884.0,29923.0,3590.0,23754.0,657.0,85151.0,12960.578386605785,-27230.0,0.0,0,Karur,10.95921,78.07722
Kasaragod,862.0,62.0,36517.0,37377.0,2485.0,27742.0,924.0,104121.0,11268.506493506491,-35655.0,0.0,0,Kasaragod,12.51143,74.98361
Kasganj,2977.0,158.0,51039.0,23480.0,4352.0,45355.0,3135.0,124226.0,3962.5518341307816,-48062.0,0.0,0,Kasganj,27.81298,78.65017
Kathua,310.0,9.0,23083.0,17080.0,1775.0,18703.0,319.0,60641.0,19009.71786833856,-22773.0,0.0,0,Kathua,32.38589,75.51756
Katihar,4903.0,115.0,98243.0,119037.0,11847.0,168447.0,5018.0,397574.0,7922.957353527302,-93340.0,0.0,0,Katihar,25.53852,87.57044
Katni,2410.0,118.0,53755.0,44697.0,8994.0,47948.0,2528.0,155394.0,6146.914556962025,-51345.0,0.0,0,Katni,23.75129204,80.40825144
Kaushambi,3038.0,69.0,74241.0,23354.0,8798.0,68214.0,3107.0,174607.0,5619.794013517862,-71203.0,0.0,0,Kaushambi,25.4990444,81.41698342
Kendrapara,757.0,48.0,39572.0,38814.0,5340.0,34579.0,805.0,118305.0,14696.273291925463,-38815.0,0.0,0,Kendrapara,20.50612,86.42107
Kendujhar,1042.0,15.0,47423.0,54810.0,7205.0,47233.0,1057.0,156671.0,14822.232734153264,-46381.0,0.0,0,Kendujhar,21.63193,85.58506
Khagaria,3779.0,69.0,39283.0,40621.0,7370.0,68254.0,3848.0,155528.0,4041.787941787942,-35504.0,0.0,0,Khagaria,25.51095,86.47246
Khammam,1343.0,9.0,59987.0,43141.0,12800.0,73376.0,1352.0,189304.0,14001.775147928993,-58644.0,0.0,0,Khammam,17.25163,80.15729
Khandwa,2732.0,103.0,46662.0,52719.0,5249.0,22088.0,2835.0,126718.0,4469.770723104057,-43930.0,0.0,0,,,
Khargone,4799.0,512.0,84011.0,95008.0,5605.0,37434.0,5311.0,222058.0,4181.09583882508,-79212.0,0.0,0,Khargone,21.82574,75.6213
Kheda,1224.0,517.0,49735.0,67426.0,5991.0,46628.0,1741.0,169780.0,9751.866743251006,-48511.0,0.0,0,Kheda,22.75264,72.68648
Khordha,850.0,178.0,52001.0,64946.0,6108.0,40146.0,1028.0,163201.0,15875.58365758755,-51151.0,0.0,0,Khordha,20.17422,85.61388
Khowai,99.0,44.0,7029.0,2137.0,514.0,2997.0,143.0,12677.0,8865.034965034965,-6930.0,0.0,0,Khowai,24.07104,91.6023
Khunti,1173.0,45.0,15296.0,27659.0,1410.0,20011.0,1218.0,64376.0,5285.385878489327,-14123.0,0.0,0,Khunti,22.98497625,85.25348492
Kiphire,693.0,52.0,1576.0,2734.0,261.0,1697.0,745.0,6268.0,841.3422818791947,-883.0,0.0,0,Kiphire,25.83437919,94.83506645
Kishanganj,1782.0,25.0,57815.0,83464.0,6372.0,138769.0,1807.0,286420.0,15850.581073602658,-56033.0,0.0,0,Kishanganj,26.10262,87.94312
Kishtwar,205.0,6.0,10878.0,10042.0,967.0,4901.0,211.0,26788.0,12695.734597156395,-10673.0,0.0,0,Kishtwar,33.31624,75.76513
Kodagu,75.0,41.0,8269.0,9036.0,1140.0,10341.0,116.0,28786.0,24815.51724137931,-8194.0,0.0,0,Kodagu,12.32488393,75.80527847
Kodarma,126.0,0.0,1247.0,3651.0,221.0,2782.0,126.0,7901.0,6270.6349206349205,-1121.0,0.0,0,,,
Koderma,1114.0,12.0,17953.0,20190.0,1672.0,22513.0,1126.0,62328.0,5535.346358792184,-16839.0,0.0,0,Koderma,24.48386,85.42703
Kohima,952.0,107.0,3226.0,10727.0,276.0,3032.0,1059.0,17261.0,1629.9338999055713,-2274.0,0.0,0,Kohima,25.66288,94.09311
Kokrajhar,1572.0,518.0,18300.0,10559.0,1928.0,20741.0,2090.0,51528.0,2465.454545454545,-16728.0,0.0,0,Kokrajhar,26.40403,90.26975
Kolar,314.0,31.0,31388.0,32895.0,6189.0,41076.0,345.0,111548.0,32332.753623188404,-31074.0,0.0,1,Kolar,13.13768,78.12999
Kolhapur,985.0,72.0,118410.0,152674.0,5819.0,124115.0,1057.0,401018.0,37939.26206244088,-117425.0,0.0,1,Kolhapur,16.70448,74.24142
Kolkata,4611.0,723.0,26756.0,64256.0,3616.0,102883.0,5334.0,197511.0,3702.868391451069,-22145.0,0.0,0,Kolkata,22.57059,88.37133
Kollam,1042.0,213.0,50033.0,77278.0,4498.0,48602.0,1255.0,180411.0,14375.378486055775,-48991.0,0.0,0,Kollam,8.88686,76.59228
Komaram Bheem,189.0,0.0,4930.0,4747.0,3729.0,23729.0,189.0,37135.0,19648.14814814815,-4741.0,0.0,0,,,
Kondagaon,1054.0,9.0,17291.0,40055.0,4193.0,57771.0,1063.0,119310.0,11223.894637817495,-16237.0,0.0,0,Kondagaon,19.5874,81.6616
Koppal,650.0,49.0,31753.0,28059.0,8068.0,35331.0,699.0,103211.0,14765.52217453505,-31103.0,0.0,0,Koppal,15.32956,76.15266
Koraput,1190.0,46.0,47391.0,57820.0,4951.0,37309.0,1236.0,147471.0,11931.31067961165,-46201.0,0.0,0,Koraput,18.81133,82.71254
Korba,489.0,13.0,32907.0,68967.0,6101.0,77273.0,502.0,185248.0,36901.99203187251,-32418.0,0.0,1,Korba,22.3458,82.69633
Koriya,504.0,1.0,19055.0,41842.0,2301.0,29434.0,505.0,92632.0,18342.970297029704,-18551.0,0.0,0,,,
Kota,1876.0,104.0,47161.0,46193.0,9075.0,83991.0,1980.0,186420.0,9415.151515151516,-45285.0,0.0,0,Kota,25.16531,75.85126
Kottayam,804.0,52.0,30704.0,47511.0,2352.0,27858.0,856.0,108425.0,12666.471962616824,-29900.0,0.0,0,Kottayam,9.59476,76.53296
Kozhikode,1914.0,203.0,61123.0,91063.0,9275.0,80652.0,2117.0,242113.0,11436.608408124705,-59209.0,0.0,0,Kozhikode,11.2588,75.78094
Krishna,540.0,34.0,146788.0,86459.0,13459.0,98390.0,574.0,345096.0,60121.2543554007,-146248.0,0.0,1,Krishna,16.18747,81.13888
Krishnagiri,910.0,8.0,73365.0,47438.0,9282.0,52627.0,918.0,182712.0,19903.267973856207,-72455.0,0.0,0,Krishnagiri,12.52646,78.21408
Kulgam,232.0,9.0,14367.0,11377.0,2329.0,10078.0,241.0,38151.0,15830.290456431536,-14135.0,0.0,0,Kulgam,33.64507,75.01765
Kullu,111.0,106.0,11409.0,9839.0,1211.0,8391.0,217.0,30850.0,14216.589861751152,-11298.0,0.0,0,Kullu,31.904116,77.40087414
Kupwara,444.0,40.0,24776.0,24984.0,7740.0,37397.0,484.0,94897.0,19606.81818181818,-24332.0,0.0,0,Kupwara,34.52686,74.25742
Kurnool,823.0,24.0,242992.0,107641.0,29378.0,148267.0,847.0,528278.0,62370.48406139315,-242169.0,0.0,1,Kurnool,15.82551,78.03012
Kushi Nagar,777.0,14.0,0.0,0.0,0.0,0.0,791.0,0.0,0.0,777.0,100.0,0,,,
Kushinagar,6133.0,30.0,81363.0,66542.0,18711.0,148684.0,6163.0,315300.0,5116.014927794905,-75230.0,0.0,0,Kushinagar,26.75009,83.91439
Kutch,2605.0,521.0,67370.0,56591.0,7742.0,59047.0,3126.0,190750.0,6102.047344849648,-64765.0,0.0,0,,,
Lakhimpur,1825.0,648.0,17189.0,12583.0,2993.0,32419.0,2473.0,65184.0,2635.826930853215,-15364.0,0.0,0,Lakhimpur,27.94822,80.77935
Lakhimpur Kheri,12841.0,455.0,139638.0,50425.0,12160.0,170938.0,13296.0,373161.0,2806.565884476534,-126797.0,0.0,0,,,
Lakhisarai,3423.0,68.0,22610.0,26887.0,4081.0,44802.0,3491.0,98380.0,2818.1036952162704,-19187.0,0.0,0,Lakhisarai,25.16772,86.09556
Lalitpur,1305.0,72.0,45154.0,30366.0,4072.0,42730.0,1377.0,122322.0,8883.224400871459,-43849.0,0.0,0,Lalitpur,24.69129,78.41379
Latehar,923.0,11.0,22149.0,21314.0,3017.0,35628.0,934.0,82108.0,8791.00642398287,-21226.0,0.0,0,Latehar,23.7444,84.50814
Latur,1631.0,148.0,74375.0,172366.0,5957.0,119670.0,1779.0,372368.0,20931.30972456436,-72744.0,0.0,0,Latur,18.39721,76.56784
Lawngtlai,381.0,97.0,8990.0,4440.0,391.0,4004.0,478.0,17825.0,3729.07949790795,-8609.0,0.0,0,Lawngtlai,22.53189,92.89906
Lohardaga,919.0,56.0,13862.0,25334.0,1511.0,15908.0,975.0,56615.0,5806.666666666667,-12943.0,0.0,0,Lohardaga,23.46888714,84.65334205
Longding,719.0,37.0,1611.0,988.0,263.0,1222.0,756.0,4084.0,540.2116402116402,-892.0,0.0,0,Longding,26.8623075,95.32686365
Longleng,636.0,48.0,671.0,2003.0,132.0,688.0,684.0,3494.0,510.8187134502924,-35.0,0.0,0,Longleng,26.49461,94.82398
Lucknow,11321.0,454.0,123838.0,93552.0,15779.0,193697.0,11775.0,426866.0,3625.188959660297,-112517.0,0.0,0,Lucknow,26.85471,80.92135
Ludhiana,4573.0,832.0,81491.0,109436.0,7364.0,112339.0,5405.0,310630.0,5747.086031452359,-76918.0,0.0,0,Ludhiana,30.90726,75.8492
Lunglei,116.0,69.0,10249.0,5040.0,1087.0,6236.0,185.0,22612.0,12222.702702702702,-10133.0,0.0,0,Lunglei,22.87654,92.75184
Madhepura,4417.0,39.0,51666.0,65571.0,6595.0,85266.0,4456.0,209098.0,4692.504488330342,-47249.0,0.0,0,Madhepura,25.91635,86.79344
Madhubani,12534.0,798.0,110514.0,127621.0,13587.0,168104.0,13332.0,419826.0,3149.009900990099,-97980.0,0.0,0,Madhubani,26.96379,84.13345
Madurai,1024.0,39.0,100202.0,113596.0,15130.0,90922.0,1063.0,319850.0,30089.36970837253,-99178.0,0.0,1,Madurai,9.92418,78.12416
Mahabubabad,253.0,1.0,5922.0,4258.0,2613.0,20797.0,254.0,33590.0,13224.409448818898,-5669.0,0.0,0,Mahabubabad,17.59606,80.0008
Maharajganj,11274.0,474.0,58866.0,44260.0,11719.0,97223.0,11748.0,212068.0,1805.1413006469184,-47592.0,0.0,0,Maharajganj,26.10972,84.50627
Mahasamund,563.0,25.0,30360.0,69509.0,8593.0,126294.0,588.0,234756.0,39924.489795918365,-29797.0,0.0,1,Mahasamund,21.1111,82.09559
Mahbubnagar,3106.0,16.0,108534.0,115226.0,24580.0,94637.0,3122.0,342977.0,10985.810377962844,-105428.0,0.0,0,Mahbubnagar,16.74385,77.98597
Mahendragarh,155.0,24.0,20501.0,28331.0,3104.0,25430.0,179.0,77366.0,43221.229050279326,-20346.0,0.0,1,Mahendragarh,23.21327,82.19355
Mahesana,908.0,293.0,42954.0,56959.0,6530.0,43687.0,1201.0,150130.0,12500.416319733557,-42046.0,0.0,0,Mahesana,23.60599,72.37562
Mahisagar,397.0,130.0,18042.0,12910.0,918.0,6589.0,527.0,38459.0,7297.722960151803,-17645.0,0.0,0,Mahisagar,23.1884087,73.64712163
Mahoba,1029.0,12.0,31178.0,15162.0,2633.0,29671.0,1041.0,78644.0,7554.658981748319,-30149.0,0.0,0,Mahoba,25.29164,79.87111
Mainpuri,6483.0,187.0,47533.0,26258.0,6552.0,62889.0,6670.0,143232.0,2147.406296851574,-41050.0,0.0,0,Mainpuri,27.22814,79.02501
Majuli,157.0,11.0,2139.0,1243.0,290.0,2991.0,168.0,6663.0,3966.071428571429,-1982.0,0.0,0,Majuli,26.96274,94.16202
Malappuram,4116.0,246.0,96696.0,127313.0,10011.0,142379.0,4362.0,376399.0,8629.046309032554,-92580.0,0.0,0,Malappuram,11.0429,76.08045
Malda,4522.0,84.0,41803.0,67691.0,18042.0,200904.0,4606.0,328440.0,7130.699088145897,-37281.0,0.0,0,,,
Malerkotla,146.0,8.0,5712.0,8075.0,1037.0,14062.0,154.0,28886.0,18757.14285714286,-5566.0,0.0,0,,,
Malkangiri,493.0,4.0,27353.0,20883.0,3382.0,17690.0,497.0,69308.0,13945.27162977867,-26860.0,0.0,0,Malkangiri,18.35906,81.88701
Mancherial,169.0,1.0,7258.0,5151.0,3062.0,24061.0,170.0,39532.0,23254.11764705882,-7089.0,0.0,0,Mancherial,18.99744337,79.5193324
Mandla,261.0,5.0,34924.0,27323.0,10371.0,46610.0,266.0,119228.0,44822.55639097744,-34663.0,0.0,1,Mandla,22.60958,80.37007
Mandsaur,808.0,24.0,46973.0,45487.0,10108.0,43947.0,832.0,146515.0,17609.97596153846,-46165.0,0.0,0,Mandsaur,24.07259,75.066
Mandya,150.0,43.0,31387.0,34392.0,4101.0,36160.0,193.0,106040.0,54943.00518134716,-31237.0,0.0,1,Mandya,12.52739,76.89468
Manendragarh–Chirmiri–Bharatpur,106.0,0.0,46.0,235.0,395.0,4718.0,106.0,5394.0,5088.679245283019,60.0,56.60377358490566,0,,,
Mansa,107.0,19.0,22379.0,36660.0,1368.0,22187.0,126.0,82594.0,65550.79365079365,-22272.0,0.0,1,,,
Marigaon,2928.0,824.0,19361.0,14575.0,4499.0,39311.0,3752.0,77746.0,2072.121535181237,-16433.0,0.0,0,Marigaon,26.25213,92.34157
Mathura,5766.0,129.0,79993.0,39424.0,11308.0,97981.0,5895.0,228706.0,3879.660729431722,-74227.0,0.0,0,Mathura,27.49193,77.67407
Mau,4942.0,47.0,46911.0,40950.0,9992.0,77708.0,4989.0,175561.0,3518.9617157747043,-41969.0,0.0,0,,,
Mayurbhanj,1861.0,35.0,77378.0,79607.0,9770.0,61751.0,1896.0,228506.0,12052.004219409282,-75517.0,0.0,0,Mayurbhanj,21.8948951,86.41202693
Medak,1608.0,8.0,72742.0,76369.0,10640.0,57292.0,1616.0,217043.0,13430.878712871288,-71134.0,0.0,0,Medak,18.04768,78.26682
Medchal Malkajgiri,265.0,30.0,0.0,0.0,0.0,0.0,295.0,0.0,0.0,265.0,100.0,0,,,
Medchal-malkajgiri,900.0,106.0,13800.0,16330.0,13782.0,71470.0,1006.0,115382.0,11469.383697813122,-12900.0,0.0,0,,,
Meerut,9598.0,252.0,109237.0,64415.0,13508.0,153711.0,9850.0,340871.0,3460.6192893401017,-99639.0,0.0,0,Meerut,28.99862,77.70459
Mirzapur,4101.0,8.0,73940.0,34252.0,8758.0,78518.0,4109.0,195468.0,4757.069846678023,-69839.0,0.0,0,Mirzapur,25.13432,82.56707
Moga,159.0,41.0,23084.0,38260.0,1304.0,22742.0,200.0,85390.0,42695.0,-22925.0,0.0,1,Moga,30.81892,75.1777
Mokokchung,315.0,43.0,2120.0,6425.0,189.0,2507.0,358.0,11241.0,3139.9441340782123,-1805.0,0.0,0,Mokokchung,26.32325,94.51371
Mon,1434.0,171.0,5267.0,8777.0,837.0,3825.0,1605.0,18706.0,1165.4828660436135,-3833.0,0.0,0,,,
Moradabad,6131.0,218.0,101759.0,58715.0,13369.0,150136.0,6349.0,323979.0,5102.835092140494,-95628.0,0.0,0,Moradabad,28.83893,78.77684
Morbi,1803.0,653.0,21440.0,10439.0,3044.0,16755.0,2456.0,51678.0,2104.1530944625406,-19637.0,0.0,0,Morbi,22.80779,70.82353
Morena,7647.0,670.0,94466.0,51093.0,15081.0,95336.0,8317.0,255976.0,3077.744378982806,-86819.0,0.0,0,Morena,26.49052,77.98572
Mulugu,233.0,4.0,2353.0,3034.0,1318.0,10380.0,237.0,17085.0,7208.86075949367,-2120.0,0.0,0,Mulugu,18.2851723,80.33615172
Mumbai,3881.0,77.0,119615.0,284744.0,7094.0,128389.0,3958.0,539842.0,13639.262253663466,-115734.0,0.0,0,Mumbai,18.94018,72.83484
Mumbai City,449.0,166.0,28377.0,19194.0,4950.0,46925.0,615.0,99446.0,16170.081300813006,-27928.0,0.0,0,,,
Mumbai Suburban,5025.0,790.0,99827.0,79290.0,19920.0,176698.0,5815.0,375735.0,6461.478933791917,-94802.0,0.0,0,Mumbai Suburban,19.14312174,72.88110732
Mungeli,355.0,2.0,28914.0,53653.0,3835.0,66729.0,357.0,153131.0,42893.837535014005,-28559.0,0.0,1,Mungeli,22.06622,81.68623
Munger,3534.0,108.0,21620.0,28851.0,4129.0,51818.0,3642.0,106418.0,2921.965952773201,-18086.0,0.0,0,Munger,25.36556,86.48767
Murshidabad,4383.0,86.0,90308.0,128771.0,31110.0,340843.0,4469.0,591032.0,13225.15104050123,-85925.0,0.0,0,Murshidabad,24.17609,88.27296
Muzaffarnagar,4575.0,124.0,113738.0,56113.0,12022.0,123611.0,4699.0,305484.0,6501.042775058524,-109163.0,0.0,0,Muzaffarnagar,29.47046,77.70766
Muzaffarpur,14103.0,665.0,93075.0,115469.0,15939.0,190978.0,14768.0,415461.0,2813.251625135428,-78972.0,0.0,0,Muzaffarpur,26.15752488,85.31878079
Mysuru,677.0,250.0,50114.0,58993.0,6237.0,52179.0,927.0,167523.0,18071.521035598707,-49437.0,0.0,0,Mysuru,12.30902,76.65306
N. T. R,97.0,46.0,6788.0,6771.0,4718.0,33352.0,143.0,51629.0,36104.195804195806,-6691.0,0.0,1,,,
Nabarangpur,2095.0,77.0,45252.0,45334.0,4235.0,37601.0,2172.0,132422.0,6096.777163904236,-43157.0,0.0,0,Nabarangpur,19.23114,82.54826
Nadia,3623.0,843.0,51700.0,76091.0,9450.0,182862.0,4466.0,320103.0,7167.554858934169,-48077.0,0.0,0,Nadia,23.4747023,88.51618107
Nagaon,3478.0,393.0,44214.0,73665.0,7120.0,90257.0,3871.0,215256.0,5560.733660552829,-40736.0,0.0,0,Nagaon,26.34949,92.68462
Nagapattinam,732.0,0.0,35304.0,45373.0,3961.0,34068.0,732.0,118706.0,16216.666666666666,-34572.0,0.0,0,Nagapattinam,10.7769,79.84062
Nagarkurnool,282.0,2.0,7210.0,5244.0,2811.0,17359.0,284.0,32624.0,11487.323943661971,-6928.0,0.0,0,Nagarkurnool,16.48687,78.31276
Nagaur,5441.0,208.0,104709.0,100659.0,10343.0,93084.0,5649.0,308795.0,5466.365728447513,-99268.0,0.0,0,Nagaur,27.20166,73.73202
Nagpur,1502.0,233.0,112851.0,238072.0,13044.0,145857.0,1735.0,509824.0,29384.668587896256,-111349.0,0.0,1,Nagpur,21.15707,79.08209
Nainital,458.0,76.0,37930.0,31431.0,6093.0,43007.0,534.0,118461.0,22183.70786516854,-37472.0,0.0,0,Nainital,29.39368,79.45178
Nalanda,10763.0,136.0,51140.0,66262.0,11812.0,141231.0,10899.0,270445.0,2481.374438021837,-40377.0,0.0,0,Nalanda,25.12591,85.45373
Nalbari,977.0,195.0,14657.0,5594.0,2083.0,18878.0,1172.0,41212.0,3516.382252559727,-13680.0,0.0,0,Nalbari,26.4446,91.43824
Nalgonda,1462.0,10.0,85761.0,84881.0,12476.0,94809.0,1472.0,277927.0,18880.91032608696,-84299.0,0.0,0,Nalgonda,17.0571,79.26849
Namakkal,607.0,9.0,47020.0,73971.0,9009.0,36807.0,616.0,166807.0,27079.05844155844,-46413.0,0.0,1,Namakkal,11.21941,78.16773
Nanded,2447.0,336.0,124730.0,217810.0,7187.0,229602.0,2783.0,579329.0,20816.708587854835,-122283.0,0.0,0,Nanded,19.15571,77.31096
Nandurbar,2663.0,238.0,67162.0,134230.0,2966.0,38678.0,2901.0,243036.0,8377.662874870734,-64499.0,0.0,0,Nandurbar,21.36671,74.24051
Narayanpet,224.0,4.0,2929.0,3358.0,2346.0,14386.0,228.0,23019.0,10096.052631578948,-2705.0,0.0,0,Narayanpet,16.74752,77.4959
Narayanpur,306.0,8.0,7156.0,15017.0,2057.0,14708.0,314.0,38938.0,12400.63694267516,-6850.0,0.0,0,Narayanpur,26.95092,93.85633
Narmada,96.0,29.0,15333.0,23865.0,2729.0,12028.0,125.0,53955.0,43164.0,-15237.0,0.0,1,,,
Narmadapuram,912.0,41.0,46638.0,57268.0,2607.0,15705.0,953.0,122218.0,12824.55403987408,-45726.0,0.0,0,,,
Narsinghpur,1445.0,92.0,40691.0,32774.0,4235.0,26248.0,1537.0,103948.0,6763.044892648016,-39246.0,0.0,0,Narsinghpur,22.94579,79.19627
Nashik,5802.0,304.0,213100.0,363506.0,14785.0,231315.0,6106.0,822706.0,13473.730756632822,-207298.0,0.0,0,Nashik,19.99727,73.79096
Navsari,201.0,103.0,24168.0,21384.0,5085.0,24517.0,304.0,75154.0,24721.71052631579,-23967.0,0.0,0,Navsari,20.94019,72.93886
Nawada,12380.0,291.0,38447.0,47798.0,6895.0,79623.0,12671.0,172763.0,1363.451976955252,-26067.0,0.0,0,Nawada,24.8867,85.54393
Nayagarh,283.0,11.0,30489.0,31534.0,3446.0,20066.0,294.0,85535.0,29093.537414965987,-30206.0,0.0,1,Nayagarh,20.13129,85.12827
Neemuch,764.0,17.0,34879.0,22132.0,5214.0,31762.0,781.0,93987.0,12034.186939820742,-34115.0,0.0,0,Neemuch,24.45854,74.86246
Nellore,2089.0,608.0,105733.0,62879.0,10156.0,80032.0,2697.0,258800.0,9595.847237671487,-103644.0,0.0,0,,,
New Delhi,502.0,217.0,2501.0,2062.0,547.0,3514.0,719.0,8624.0,1199.443671766342,-1999.0,0.0,0,New Delhi,28.63097,77.2172
Nirmal,106.0,3.0,6240.0,7084.0,4519.0,29327.0,109.0,47170.0,43275.22935779817,-6134.0,0.0,1,Nirmal,19.08685,78.33975
Nizamabad,654.0,9.0,66566.0,61609.0,11808.0,60708.0,663.0,200691.0,30270.13574660634,-65912.0,0.0,1,Nizamabad,18.67154,78.0988
Noklak,246.0,38.0,227.0,520.0,62.0,385.0,284.0,1194.0,420.4225352112676,19.0,7.723577235772358,0,,,
North 24 Parganas,8598.0,1862.0,99223.0,139340.0,15299.0,294913.0,10460.0,548775.0,5246.414913957935,-90625.0,0.0,0,,,
North Cachar Hills,420.0,137.0,2782.0,1242.0,300.0,3299.0,557.0,7623.0,1368.5816876122085,-2362.0,0.0,0,,,
North Delhi,1230.0,81.0,25642.0,35188.0,9317.0,77583.0,1311.0,147730.0,11268.497330282227,-24412.0,0.0,0,North Delhi,28.68898739,77.219445
North East,408.0,2.0,2393.0,44227.0,360.0,11467.0,410.0,58447.0,14255.365853658535,-1985.0,0.0,0,,,
North East Delhi,3749.0,65.0,77278.0,65818.0,25389.0,115759.0,3814.0,284244.0,7452.648138437336,-73529.0,0.0,0,North East Delhi,28.71789793,77.25367264
North Garo Hills,1854.0,758.0,816.0,427.0,182.0,3650.0,2612.0,5075.0,194.2955589586524,1038.0,55.98705501618123,0,North Garo Hills,25.87084688,90.69906329
North Goa,146.0,99.0,18320.0,19451.0,1713.0,17130.0,245.0,56614.0,23107.755102040814,-18174.0,0.0,0,North Goa,15.55011847,73.98214611
North Tripura,416.0,26.0,23177.0,24321.0,1058.0,13873.0,442.0,62429.0,14124.20814479638,-22761.0,0.0,0,North Tripura,24.10385526,92.20798421
North West Delhi,3293.0,355.0,133575.0,191718.0,39744.0,274245.0,3648.0,639282.0,17524.177631578947,-130282.0,0.0,0,North West Delhi,28.76866605,77.08456027
Nuapada,413.0,2.0,23036.0,23622.0,2464.0,15428.0,415.0,64550.0,15554.21686746988,-22623.0,0.0,0,Nuapada,20.77646,82.54623
Nuh,763.0,61.0,38268.0,30057.0,6364.0,60303.0,824.0,134992.0,16382.52427184466,-37505.0,0.0,0,,,
Pakur,2908.0,45.0,21113.0,16174.0,2790.0,42671.0,2953.0,82748.0,2802.167287504233,-18205.0,0.0,0,Pakur,24.63681,87.84719
Palakkad,1381.0,169.0,61028.0,98819.0,3894.0,46102.0,1550.0,209843.0,13538.258064516129,-59647.0,0.0,0,Palakkad,10.77581,76.65813
Palamu,1994.0,64.0,57189.0,55852.0,9410.0,104641.0,2058.0,227092.0,11034.596695821188,-55195.0,0.0,0,Palamu,24.20310622,84.16925521
Palghar,3191.0,165.0,91196.0,66756.0,9003.0,113104.0,3356.0,280059.0,8345.023837902265,-88005.0,0.0,0,Palghar,19.70023,72.77104
Pali,2696.0,118.0,70502.0,85408.0,5398.0,60939.0,2814.0,222247.0,7897.903340440654,-67806.0,0.0,0,Pali,25.77276,73.32335
Palnadu,76.0,25.0,6007.0,4046.0,3955.0,21540.0,101.0,35548.0,35196.039603960395,-5931.0,0.0,1,,,
Palwal,332.0,4.0,30617.0,28080.0,7265.0,61703.0,336.0,127665.0,37995.53571428572,-30285.0,0.0,1,Palwal,28.14264,77.33442
Panchmahal,1566.0,429.0,39211.0,65884.0,3215.0,29672.0,1995.0,137982.0,6916.390977443609,-37645.0,0.0,0,,,
Panipat,543.0,47.0,31426.0,48347.0,9431.0,59653.0,590.0,148857.0,25230.0,-30883.0,0.0,1,Panipat,29.38747,76.96825
Panna,2404.0,128.0,53832.0,44207.0,4984.0,37841.0,2532.0,140864.0,5563.349131121643,-51428.0,0.0,0,Panna,24.70793,80.17652
Papum Pare,241.0,5.0,4835.0,4424.0,770.0,4152.0,246.0,14181.0,5764.634146341464,-4594.0,0.0,0,Papum Pare,27.30976594,93.60479049
Parbhani,1011.0,199.0,77890.0,106136.0,4432.0,112397.0,1210.0,300855.0,24864.049586776862,-76879.0,0.0,0,Parbhani,19.26078,76.77693
Paschim Bardhaman,318.0,93.0,3659.0,6446.0,1400.0,15281.0,411.0,26786.0,6517.274939172749,-3341.0,0.0,0,Paschim Bardhaman,23.65761568,87.16823949
Paschim Medinipur,4536.0,173.0,73737.0,93995.0,15100.0,229772.0,4709.0,412604.0,8762.030155022298,-69201.0,0.0,0,Paschim Medinipur,22.43995267,87.41690716
Pashchimi Singhbhum,252.0,1.0,3615.0,10496.0,235.0,8922.0,253.0,23268.0,9196.837944664032,-3363.0,0.0,0,,,
Patan,2228.0,716.0,35135.0,38814.0,3100.0,26459.0,2944.0,103508.0,3515.896739130435,-32907.0,0.0,0,Patan,23.8507,72.12963
Pathanamthitta,480.0,73.0,20056.0,39314.0,1955.0,19080.0,553.0,80405.0,14539.783001808317,-19576.0,0.0,0,Pathanamthitta,9.26457,76.78669
Patiala,769.0,83.0,54972.0,64339.0,7390.0,81662.0,852.0,208363.0,24455.751173708923,-54203.0,0.0,0,Patiala,30.33625,76.3922
Patna,17151.0,748.0,93322.0,115692.0,20931.0,222841.0,17899.0,452786.0,2529.6720487178054,-76171.0,0.0,0,Patna,25.60129,85.13752
Pauri Garhwal,165.0,14.0,24167.0,19592.0,2138.0,18992.0,179.0,64889.0,36250.83798882682,-24002.0,0.0,1,Pauri Garhwal,29.87719326,78.76644127
Perambalur,232.0,0.0,25143.0,31894.0,3307.0,12354.0,232.0,72698.0,31335.34482758621,-24911.0,0.0,1,Perambalur,11.2341,78.88024
Peren,843.0,100.0,1819.0,2765.0,391.0,1413.0,943.0,6388.0,677.4125132555673,-976.0,0.0,0,Peren,25.49866484,93.62136537
Phek,695.0,39.0,1620.0,7138.0,155.0,1313.0,734.0,10226.0,1393.1880108991825,-925.0,0.0,0,Phek,25.64910075,94.54502422
Pilibhit,4631.0,213.0,94560.0,41070.0,11012.0,125251.0,4844.0,271893.0,5612.985136251033,-89929.0,0.0,0,Pilibhit,28.63124,79.80436
Pithoragarh,146.0,9.0,15610.0,14573.0,1538.0,13164.0,155.0,44885.0,28958.06451612903,-15464.0,0.0,1,Pithoragarh,29.58519,80.21629
Porbandar,332.0,181.0,14257.0,16728.0,1801.0,12822.0,513.0,45608.0,8890.448343079921,-13925.0,0.0,0,Porbandar,21.64481,69.62102
Prakasam,1157.0,61.0,136533.0,75766.0,15519.0,104979.0,1218.0,332797.0,27323.234811165843,-135376.0,0.0,1,Prakasam,15.51761,80.0599
Pratapgarh,5519.0,74.0,111741.0,76506.0,13820.0,139466.0,5593.0,341533.0,6106.436617200072,-106222.0,0.0,0,,,
Prayagraj,7201.0,231.0,188523.0,90610.0,21913.0,193409.0,7432.0,494455.0,6653.0543595263725,-181322.0,0.0,0,Prayagraj,25.43609,81.84718
Puducherry,85.0,32.0,16187.0,12467.0,2736.0,17038.0,117.0,48428.0,41391.45299145299,-16102.0,0.0,1,Puducherry,11.92993,79.8247
Pudukkottai,1670.0,36.0,52246.0,78060.0,7347.0,44710.0,1706.0,182363.0,10689.507620164126,-50576.0,0.0,0,Pudukkottai,10.38518,78.79233
Pulwama,118.0,15.0,20583.0,12249.0,3432.0,18055.0,133.0,54319.0,40841.35338345865,-20465.0,0.0,1,Pulwama,33.87351,74.89937
Punch,548.0,17.0,25884.0,20491.0,4052.0,19388.0,565.0,69815.0,12356.637168141591,-25336.0,0.0,0,,,
Pune,6536.0,1139.0,283480.0,322282.0,32644.0,405834.0,7675.0,1044240.0,13605.7328990228,-276944.0,0.0,0,Pune,18.50419,73.85286
Purba Bardhaman,390.0,128.0,5236.0,7609.0,2464.0,21987.0,518.0,37296.0,7200.0,-4846.0,0.0,0,Purba Bardhaman,23.35721277,87.95205357
Purba Medinipur,1628.0,62.0,69157.0,88903.0,10513.0,118167.0,1690.0,286740.0,16966.86390532544,-67529.0,0.0,0,Purba Medinipur,22.03252778,87.77965662
Purbi Singhbhum,172.0,0.0,3984.0,16575.0,86.0,4780.0,172.0,25425.0,14781.976744186048,-3812.0,0.0,0,,,
Puri,574.0,4.0,37188.0,37735.0,3976.0,28887.0,578.0,107786.0,18648.09688581315,-36614.0,0.0,0,Puri,19.79825,85.82494
Purnia,7809.0,184.0,107060.0,126445.0,9549.0,136631.0,7993.0,379685.0,4750.218941573877,-99251.0,0.0,0,Purnia,25.77687,87.47435
Purulia,3655.0,134.0,37202.0,58769.0,12728.0,149619.0,3789.0,258318.0,6817.577197149643,-33547.0,0.0,0,Purulia,23.33298,86.36696
Rae Bareli,3875.0,42.0,83330.0,45408.0,10271.0,97982.0,3917.0,236991.0,6050.31912177687,-79455.0,0.0,0,Rae Bareli,26.22099,81.25568
Raichur,2056.0,104.0,53880.0,56997.0,7377.0,40787.0,2160.0,159041.0,7363.009259259259,-51824.0,0.0,0,Raichur,16.20546,77.35567
Raigad,759.0,105.0,4177.0,10348.0,3592.0,39622.0,864.0,57739.0,6682.754629629629,-3418.0,0.0,0,Raigad,18.51217,73.2234056
Raigarh,1440.0,38.0,114077.0,217212.0,9243.0,160060.0,1478.0,500592.0,33869.55345060893,-112637.0,0.0,1,Raigarh,21.89623,83.39413
Raipur,779.0,57.0,59737.0,132637.0,12289.0,120722.0,836.0,325385.0,38921.65071770335,-58958.0,0.0,1,Raipur,21.24402,81.6348
Raisen,1230.0,122.0,67598.0,49050.0,6174.0,36639.0,1352.0,159461.0,11794.452662721891,-66368.0,0.0,0,Raisen,23.33011,77.78448
Rajgarh,1594.0,35.0,83066.0,82163.0,7503.0,34777.0,1629.0,207509.0,12738.42848373235,-81472.0,0.0,0,Rajgarh,24.00574,76.72716
Rajkot,3732.0,919.0,79522.0,89189.0,10174.0,127426.0,4651.0,306311.0,6585.917007095249,-75790.0,0.0,0,Rajkot,22.29161,70.79322
Rajnandgaon,371.0,23.0,53657.0,100841.0,10303.0,137815.0,394.0,302616.0,76806.09137055838,-53286.0,0.0,1,Rajnandgaon,21.09755,81.03435
Rajouri,594.0,9.0,29902.0,25834.0,2395.0,13413.0,603.0,71544.0,11864.676616915423,-29308.0,0.0,0,Rajouri,33.24393836,74.39195973
Rajsamand,1405.0,29.0,33770.0,28192.0,4623.0,42547.0,1434.0,109132.0,7610.320781032078,-32365.0,0.0,0,Rajsamand,25.05946,73.88316
Ramanagar,379.0,11.0,20055.0,20867.0,3637.0,31197.0,390.0,75756.0,19424.615384615383,-19676.0,0.0,0,,,
Ramanathapuram,644.0,43.0,45471.0,54948.0,5157.0,33134.0,687.0,138710.0,20190.684133915576,-44827.0,0.0,0,Ramanathapuram,9.36025,78.83724
Ramban,597.0,6.0,21848.0,8029.0,1857.0,5897.0,603.0,37631.0,6240.630182421227,-21251.0,0.0,0,Ramban,33.24151,75.23696
Ramgarh,1066.0,11.0,17337.0,19900.0,2377.0,33083.0,1077.0,72697.0,6749.953574744662,-16271.0,0.0,0,Ramgarh,25.29061,83.65032
Rampur,7757.0,302.0,83353.0,41589.0,12350.0,143168.0,8059.0,280460.0,3480.084377714357,-75596.0,0.0,0,Rampur,28.77825,79.02556
Ranchi,4613.0,334.0,61673.0,116101.0,8306.0,95347.0,4947.0,281427.0,5688.841722255913,-57060.0,0.0,0,Ranchi,23.3507,85.31377
Ranga Reddy,573.0,12.0,14309.0,43845.0,4351.0,23994.0,585.0,86499.0,14786.153846153846,-13736.0,0.0,0,,,
Ratlam,1478.0,77.0,83610.0,51337.0,11051.0,68372.0,1555.0,214370.0,13785.852090032153,-82132.0,0.0,0,Ratlam,23.33033,75.04032
Ratnagiri,219.0,32.0,56842.0,82347.0,2652.0,50357.0,251.0,192198.0,76572.90836653387,-56623.0,0.0,1,Ratnagiri,16.99214,73.2919
Rayagada,707.0,3.0,29681.0,30618.0,4179.0,28192.0,710.0,92670.0,13052.112676056338,-28974.0,0.0,0,Rayagada,19.17323,83.4122
Reasi,570.0,9.0,12538.0,10702.0,1119.0,7281.0,579.0,31640.0,5464.594127806563,-11968.0,0.0,0,Reasi,33.08202,74.83298
Rewa,1463.0,29.0,119788.0,75171.0,9422.0,73712.0,1492.0,278093.0,18638.94101876676,-118325.0,0.0,0,Rewa,24.52611,81.30245
Rewari,150.0,6.0,24987.0,24745.0,6191.0,37840.0,156.0,93763.0,60104.48717948718,-24837.0,0.0,1,Rewari,28.199,76.6183
Ri-Bhoi,4598.0,3372.0,2847.0,1677.0,866.0,7350.0,7970.0,12740.0,159.84943538268507,1751.0,38.081774684645495,0,,,
Rohtak,191.0,61.0,25700.0,50270.0,4152.0,22379.0,252.0,102501.0,40675.0,-25509.0,0.0,1,Rohtak,28.89764,76.57446
Rohtas,5120.0,78.0,50054.0,61656.0,10462.0,107283.0,5198.0,229455.0,4414.293959215082,-44934.0,0.0,0,Rohtas,24.69323,84.00265
Rupnagar,93.0,13.0,17435.0,28032.0,1007.0,12718.0,106.0,59192.0,55841.50943396227,-17342.0,0.0,1,Rupnagar,30.97297,76.53273
SAS Nagar,200.0,48.0,353.0,2388.0,50.0,2276.0,248.0,5067.0,2043.1451612903224,-153.0,0.0,0,,,
SAS Nagar (Mohali),493.0,62.0,30755.0,27086.0,4590.0,53482.0,555.0,115913.0,20885.225225225226,-30262.0,0.0,0,,,
Sabarkantha,2370.0,496.0,37159.0,53845.0,5648.0,38872.0,2866.0,135524.0,4728.6810886252615,-34789.0,0.0,0,,,
Sagar,1882.0,387.0,112844.0,79881.0,9874.0,78003.0,2269.0,280602.0,12366.769501983252,-110962.0,0.0,0,Sagar,23.84315,78.74272
Saharanpur,5359.0,99.0,114742.0,75974.0,13397.0,154417.0,5458.0,358530.0,6568.889703187981,-109383.0,0.0,0,Saharanpur,29.96569,77.54607
Saharsa,6577.0,205.0,42412.0,77454.0,6443.0,74734.0,6782.0,201043.0,2964.361545266883,-35835.0,0.0,0,Saharsa,25.87723,86.59285
Sahebganj,2670.0,15.0,36759.0,27666.0,4750.0,60999.0,2685.0,130174.0,4848.193668528864,-34089.0,0.0,0,Sahebganj,26.29745,84.92698
Sahibganj,178.0,0.0,654.0,1443.0,150.0,2506.0,178.0,4753.0,2670.224719101124,-476.0,0.0,0,,,
Saiha,181.0,102.0,4477.0,1279.0,215.0,1636.0,283.0,7607.0,2687.9858657243817,-4296.0,0.0,0,Saiha,22.49006,92.98032
Salem,1608.0,224.0,118161.0,122483.0,15487.0,90884.0,1832.0,347015.0,18941.866812227072,-116553.0,0.0,0,Salem,11.66553,78.15164
Samastipur,7787.0,131.0,93161.0,107004.0,15445.0,186847.0,7918.0,402457.0,5082.811315988885,-85374.0,0.0,0,Samastipur,25.86357,85.77874
Sambalpur,321.0,1.0,26688.0,25634.0,3690.0,26630.0,322.0,82642.0,25665.21739130435,-26367.0,0.0,1,Sambalpur,21.46527,83.97573
Sambhal,3816.0,117.0,78323.0,25024.0,8117.0,91472.0,3933.0,202936.0,5159.827103991864,-74507.0,0.0,0,Sambhal,28.58438,78.57182
Sangareddy,468.0,11.0,14012.0,8067.0,6437.0,30851.0,479.0,59367.0,12393.945720250522,-13544.0,0.0,0,Sangareddy,17.62515,78.08236
Sangli,1802.0,133.0,94241.0,128772.0,3462.0,86422.0,1935.0,312897.0,16170.387596899223,-92439.0,0.0,0,Sangli,16.85438,74.56417
Sangrur,203.0,39.0,37125.0,45345.0,1404.0,28511.0,242.0,112385.0,46440.0826446281,-36922.0,0.0,1,Sangrur,30.25108,75.83437
Sant Kabir Nagar,3343.0,37.0,53729.0,36811.0,7684.0,71522.0,3380.0,169746.0,5022.07100591716,-50386.0,0.0,0,,,
Saran,16407.0,219.0,63026.0,85477.0,14788.0,155057.0,16626.0,318348.0,1914.7600144352216,-46619.0,0.0,0,Saran,25.92041915,84.81095533
Satara,717.0,156.0,103754.0,105815.0,3951.0,94272.0,873.0,307792.0,35256.815578465066,-103037.0,0.0,1,Satara,17.68589,73.99333
Satna,1946.0,132.0,96656.0,76057.0,11697.0,75356.0,2078.0,259766.0,12500.769971126085,-94710.0,0.0,0,Satna,24.5761,80.80066
Sawai Madhopur,2083.0,86.0,42901.0,38521.0,4617.0,40538.0,2169.0,126577.0,5835.730751498387,-40818.0,0.0,0,Sawai Madhopur,26.02301,76.34408
Sehore,1308.0,55.0,54978.0,63024.0,4566.0,23303.0,1363.0,145871.0,10702.201027146002,-53670.0,0.0,0,Sehore,23.20106,77.07711
Senapati,721.0,16.0,12619.0,9977.0,4776.0,20734.0,737.0,48106.0,6527.272727272727,-11898.0,0.0,0,Senapati,25.26867,94.02224
Seoni,513.0,10.0,45852.0,39900.0,10764.0,63519.0,523.0,160035.0,30599.426386233263,-45339.0,0.0,1,Seoni,22.08503,79.55037
Sepahijala,577.0,30.0,13756.0,5869.0,1094.0,14231.0,607.0,34950.0,5757.825370675453,-13179.0,0.0,0,Sepahijala,23.60635,91.34328
Seraikela-Kharsawan,961.0,30.0,29138.0,35036.0,2085.0,26654.0,991.0,92913.0,9375.681130171544,-28177.0,0.0,0,,,
Seraikela-kharsawan,316.0,0.0,2760.0,11654.0,144.0,5818.0,316.0,20376.0,6448.1012658227855,-2444.0,0.0,0,,,
Shahdara,515.0,64.0,2658.0,5305.0,4681.0,23863.0,579.0,36507.0,6305.181347150259,-2143.0,0.0,0,Shahdara,28.68005217,77.29512364
Shahdol,828.0,59.0,45413.0,49159.0,6791.0,47986.0,887.0,149349.0,16837.542277339347,-44585.0,0.0,0,Shahdol,23.29266,81.35864
Shaheed Bhagat Singh Nagar,101.0,44.0,13729.0,16771.0,569.0,5775.0,145.0,36844.0,25409.6551724138,-13628.0,0.0,1,,,
Shahjahanpur,11033.0,447.0,114767.0,39721.0,13197.0,136275.0,11480.0,303960.0,2647.7351916376306,-103734.0,0.0,0,Shahjahanpur,27.85574,79.91809
Shajapur,1070.0,18.0,62880.0,63761.0,4315.0,26910.0,1088.0,157866.0,14509.742647058823,-61810.0,0.0,0,Shajapur,23.41999,76.28085
Shamator,221.0,23.0,36.0,134.0,51.0,382.0,244.0,603.0,247.1311475409836,185.0,83.710407239819,0,,,
Shamli,2613.0,57.0,65022.0,38112.0,7228.0,68386.0,2670.0,178748.0,6694.681647940075,-62409.0,0.0,0,Shamli,29.44477,77.31707
Sheikhpura,1934.0,21.0,16884.0,23539.0,2326.0,25762.0,1955.0,68511.0,3504.3989769820973,-14950.0,0.0,0,Sheikhpura,25.14192,85.86284
Sheohar,1184.0,11.0,12986.0,19696.0,2482.0,28998.0,1195.0,64162.0,5369.205020920502,-11802.0,0.0,0,Sheohar,26.51373,85.29451
Sheopur,3326.0,139.0,32840.0,23428.0,5300.0,33506.0,3465.0,95074.0,2743.838383838384,-29514.0,0.0,0,Sheopur,25.67335,76.69655
Shimla,161.0,21.0,19863.0,19864.0,1841.0,13901.0,182.0,55469.0,30477.472527472524,-19702.0,0.0,1,Shimla,31.10326,77.15844
Shivamogga,331.0,43.0,29111.0,31392.0,5689.0,34576.0,374.0,100768.0,26943.31550802139,-28780.0,0.0,1,Shivamogga,13.9448,75.56668
Shivpuri,4867.0,747.0,90683.0,75889.0,7316.0,61614.0,5614.0,235502.0,4194.905593159958,-85816.0,0.0,0,Shivpuri,25.42378,77.66223
Shopian,84.0,20.0,0.0,0.0,0.0,0.0,104.0,0.0,0.0,84.0,100.0,0,Shopian,33.71937,74.83127
Shravasti,4721.0,248.0,35921.0,20643.0,4345.0,58376.0,4969.0,119285.0,2400.5836184342925,-31200.0,0.0,0,Shravasti,27.72125278,81.89989886
Shupiyan,128.0,1.0,9253.0,6276.0,1844.0,6363.0,129.0,23736.0,18400.0,-9125.0,0.0,0,,,
Siddharthnagar,11325.0,551.0,65033.0,42247.0,9289.0,84354.0,11876.0,200923.0,1691.8406871000336,-53708.0,0.0,0,Siddharthnagar,27.27337711,82.86332706
Siddipet,174.0,1.0,10041.0,6168.0,4466.0,31495.0,175.0,52170.0,29811.42857142857,-9867.0,0.0,1,Siddipet,18.0191955,78.86362776
Sidhi,671.0,15.0,77260.0,43947.0,5976.0,48117.0,686.0,175300.0,25553.935860058307,-76589.0,0.0,1,Sidhi,24.40736,81.88261
Sikar,3061.0,176.0,73998.0,87615.0,9034.0,69303.0,3237.0,239950.0,7412.727834414581,-70937.0,0.0,0,Sikar,27.61206,75.13996
Simdega,594.0,13.0,20497.0,42214.0,1750.0,24335.0,607.0,88796.0,14628.665568369028,-19903.0,0.0,0,Simdega,22.61049,84.50165
Singrauli,859.0,22.0,76133.0,32297.0,8741.0,47963.0,881.0,165134.0,18743.92735527809,-75274.0,0.0,0,Singrauli,24.19468,82.6656
Sirohi,4853.0,379.0,35757.0,34393.0,3803.0,37490.0,5232.0,111443.0,2130.026758409786,-30904.0,0.0,0,Sirohi,24.8903,72.85645
Sirsa,198.0,2.0,40642.0,56424.0,4976.0,50186.0,200.0,152228.0,76114.0,-40444.0,0.0,1,Sirsa,29.53957,75.03103
Sitamarhi,18856.0,2697.0,84925.0,97075.0,12645.0,157203.0,21553.0,351848.0,1632.478077297824,-66069.0,0.0,0,Sitamarhi,26.5797,85.50934
Sitapur,13869.0,748.0,200310.0,64001.0,12130.0,157192.0,14617.0,433633.0,2966.6347403708014,-186441.0,0.0,0,Sitapur,27.56192,80.68265
Sivaganga,685.0,21.0,43566.0,51624.0,5391.0,28905.0,706.0,129486.0,18340.793201133143,-42881.0,0.0,0,Sivaganga,9.85021,78.4856
Sivasagar,627.0,767.0,8287.0,3093.0,1031.0,12039.0,1394.0,24450.0,1753.945480631277,-7660.0,0.0,0,Sivasagar,26.98985,94.64008
Siwan,9025.0,137.0,52907.0,72897.0,10600.0,113122.0,9162.0,249526.0,2723.488321327221,-43882.0,0.0,0,Siwan,26.22096,84.35609
Solapur,2495.0,260.0,154623.0,179884.0,7735.0,257811.0,2755.0,600053.0,21780.508166969143,-152128.0,0.0,0,Solapur,17.65809,75.90678
Sonapur,221.0,1.0,15297.0,11028.0,2183.0,11084.0,222.0,39592.0,17834.234234234234,-15076.0,0.0,0,,,
Sonbhadra,2023.0,13.0,72009.0,31746.0,6874.0,65203.0,2036.0,175832.0,8636.14931237721,-69986.0,0.0,0,Sonbhadra,24.42203777,83.0622628
Sonipat,268.0,37.0,34624.0,50029.0,7748.0,52916.0,305.0,145317.0,47644.91803278689,-34356.0,0.0,1,Sonipat,28.9953,77.02214
Sonitpur,2723.0,973.0,17454.0,12663.0,3162.0,40414.0,3696.0,73693.0,1993.8582251082253,-14731.0,0.0,0,Sonitpur,26.78398538,92.70607557
South,108.0,1.0,1018.0,2032.0,156.0,3583.0,109.0,6789.0,6228.440366972477,-910.0,0.0,0,,,
South 24 Parganas,9426.0,330.0,110737.0,147273.0,28542.0,414712.0,9756.0,701264.0,7188.0278802788025,-101311.0,0.0,0,,,
South Delhi,2780.0,477.0,96661.0,126275.0,20329.0,193160.0,3257.0,436425.0,13399.600859686829,-93881.0,0.0,0,South Delhi,28.48368246,77.19762521
South Garo Hills,2427.0,1446.0,584.0,701.0,250.0,3754.0,3873.0,5289.0,136.56080557707205,1843.0,75.93737124021426,0,South Garo Hills,25.30925714,90.57743606
South Goa,108.0,64.0,15915.0,14669.0,1560.0,14678.0,172.0,46822.0,27222.093023255813,-15807.0,0.0,1,South Goa,15.1950588,74.11859102
South Salmara Mankachar,364.0,46.0,2855.0,1993.0,1188.0,19859.0,410.0,25895.0,6315.8536585365855,-2491.0,0.0,0,,,
South Sikkim,247.0,25.0,1299.0,754.0,133.0,1276.0,272.0,3462.0,1272.7941176470588,-1052.0,0.0,0,South Sikkim,27.33333,88.41667
South Tripura,804.0,6.0,22883.0,34673.0,2536.0,28143.0,810.0,88235.0,10893.20987654321,-22079.0,0.0,0,South Tripura,23.20130752,91.58261067
South West Delhi,1945.0,359.0,66558.0,74969.0,19940.0,149759.0,2304.0,311226.0,13508.072916666666,-64613.0,0.0,0,South West Delhi,28.5708361,77.0187817
South West Garo Hills,1656.0,883.0,2485.0,2430.0,493.0,6689.0,2539.0,12097.0,476.44742024419065,-829.0,0.0,0,South West Garo Hills,25.44557148,89.9501581
South West Khasi Hills,1543.0,1114.0,1894.0,1538.0,643.0,4097.0,2657.0,8172.0,307.56492284531424,-351.0,0.0,0,South West Khasi Hills,25.31754834,91.26426864
Sri Muktsar Sahib,178.0,8.0,26476.0,38626.0,1646.0,23596.0,186.0,90344.0,48572.04301075269,-26298.0,0.0,1,Sri Muktsar Sahib,30.46777,74.51819
Srikakulam,135.0,8.0,125178.0,67429.0,24315.0,111384.0,143.0,328306.0,229584.61538461532,-125043.0,0.0,2,Srikakulam,18.2989,83.89751
Srinagar,271.0,135.0,32592.0,40252.0,3495.0,36221.0,406.0,112560.0,27724.13793103448,-32321.0,0.0,1,Srinagar,34.08442,74.7991
Sukma,804.0,119.0,13922.0,16217.0,1509.0,11237.0,923.0,42885.0,4646.26218851571,-13118.0,0.0,0,Sukma,18.39238,81.65877
Sultanpur,5837.0,132.0,60800.0,37665.0,9519.0,73102.0,5969.0,181086.0,3033.774501591556,-54963.0,0.0,0,Sultanpur,26.25824,82.0681
Sundargarh,764.0,19.0,50888.0,59559.0,5940.0,44396.0,783.0,160783.0,20534.227330779057,-50124.0,0.0,0,Sundargarh,22.11958,84.04161
Supaul,4563.0,157.0,47023.0,65347.0,6449.0,100462.0,4720.0,219281.0,4645.783898305085,-42460.0,0.0,0,Supaul,26.1153,86.59543
Surajpur,720.0,7.0,24586.0,47236.0,3394.0,38673.0,727.0,113889.0,15665.6121045392,-23866.0,0.0,0,Surajpur,23.2139,82.86823
Surat,6399.0,658.0,138828.0,142771.0,35198.0,322384.0,7057.0,639181.0,9057.403996032308,-132429.0,0.0,0,Surat,21.18584,72.83667
Surendra Nagar,1665.0,337.0,44699.0,51012.0,3636.0,35123.0,2002.0,134470.0,6716.7832167832175,-43034.0,0.0,0,,,
Surendranagar,593.0,78.0,46.0,481.0,19.0,894.0,671.0,1440.0,214.60506706408347,547.0,92.24283305227657,0,Surendranagar,22.72706,71.64856
Surguja,679.0,11.0,30222.0,52638.0,9129.0,106554.0,690.0,198543.0,28774.34782608696,-29543.0,0.0,1,Surguja,22.94058325,83.12345663
Suryapet,297.0,2.0,9015.0,11078.0,4565.0,41224.0,299.0,65882.0,22034.113712374583,-8718.0,0.0,0,Suryapet,17.15349,79.62007
Tamenglong,634.0,29.0,4067.0,3787.0,2211.0,8220.0,663.0,18285.0,2757.9185520362,-3433.0,0.0,0,Tamenglong,24.96538,93.49509
Tapi,205.0,151.0,16731.0,23294.0,2645.0,9545.0,356.0,52215.0,14667.134831460677,-16526.0,0.0,0,Tapi,21.17638519,73.6193864
Tarn Taran,273.0,20.0,26674.0,54028.0,1156.0,26259.0,293.0,108117.0,36900.0,-26401.0,0.0,1,Tarn Taran,31.45959,74.92212
Tehri Garhwal,324.0,13.0,27362.0,29919.0,2715.0,23153.0,337.0,83149.0,24673.293768545995,-27038.0,0.0,0,Tehri Garhwal,30.43443606,78.53746063
Tenkasi,118.0,0.0,7560.0,2643.0,1825.0,8195.0,118.0,20223.0,17138.135593220337,-7442.0,0.0,0,Tenkasi,8.9635,77.30821
Thane,13629.0,967.0,202896.0,368377.0,36090.0,411163.0,14596.0,1018526.0,6978.11729240888,-189267.0,0.0,0,Thane,19.19704,72.96355
Thanjavur,1471.0,20.0,71305.0,98262.0,11625.0,65210.0,1491.0,246402.0,16525.955734406438,-69834.0,0.0,0,Thanjavur,10.76864,79.12901
The Nilgiris,430.0,5.0,22599.0,21505.0,2420.0,12853.0,435.0,59377.0,13649.885057471263,-22169.0,0.0,0,The Nilgiris,11.45711776,76.64147526
Theni,563.0,2.0,38916.0,47806.0,4918.0,33858.0,565.0,125498.0,22212.035398230088,-38353.0,0.0,0,Theni,10.01019,77.47708
Thiruvananthapuram,1394.0,433.0,55721.0,93096.0,5373.0,59565.0,1827.0,213755.0,11699.781061850026,-54327.0,0.0,0,Thiruvananthapuram,8.50525,76.95144
Thiruvarur,816.0,3.0,36203.0,36596.0,5041.0,32739.0,819.0,110579.0,13501.709401709402,-35387.0,0.0,0,Thiruvarur,10.77342,79.63663
Thoubal,638.0,6.0,32794.0,23249.0,7639.0,51605.0,644.0,115287.0,17901.708074534163,-32156.0,0.0,0,Thoubal,24.64331,93.99715
Thrissur,1672.0,485.0,58766.0,86746.0,4994.0,53826.0,2157.0,204332.0,9472.971719981457,-57094.0,0.0,0,Thrissur,10.51082,76.21121
Tikamgarh,1539.0,29.0,89448.0,71168.0,8041.0,43127.0,1568.0,211784.0,13506.632653061226,-87909.0,0.0,0,Tikamgarh,24.74429,78.83302
Tinsukia,2867.0,1633.0,12082.0,7167.0,2000.0,33249.0,4500.0,54498.0,1211.0666666666666,-9215.0,0.0,0,Tinsukia,27.48771,95.35682
Tiruchirappalli,1531.0,5.0,71253.0,122317.0,11294.0,62387.0,1536.0,267251.0,17399.153645833336,-69722.0,0.0,0,Tiruchirappalli,10.80605,78.69476
Tirunelveli,1370.0,2.0,97249.0,117524.0,14714.0,65176.0,1372.0,294663.0,21476.89504373178,-95879.0,0.0,0,Tirunelveli,8.72641,77.7335
Tirupati,689.0,228.0,5633.0,4765.0,4768.0,28462.0,917.0,43628.0,4757.688113413304,-4944.0,0.0,0,,,
Tirupattur,102.0,2.0,8965.0,3146.0,1189.0,8163.0,104.0,21463.0,20637.5,-8863.0,0.0,0,,,
Tiruppur,1109.0,5.0,71207.0,77565.0,12574.0,73372.0,1114.0,234718.0,21069.83842010772,-70098.0,0.0,0,Tiruppur,11.08942,77.36261
Tiruvallur,2799.0,68.0,126773.0,113917.0,18423.0,131808.0,2867.0,390921.0,13635.19358214161,-123974.0,0.0,0,,,
Tiruvannamalai,677.0,33.0,82696.0,58759.0,9251.0,55967.0,710.0,206673.0,29108.873239436623,-82019.0,0.0,1,Tiruvannamalai,12.23526,79.07481
Tonk,1656.0,61.0,41737.0,38186.0,5975.0,50653.0,1717.0,136551.0,7952.882935352359,-40081.0,0.0,0,Tonk,26.16113,75.78625
Tuensang,983.0,84.0,2650.0,7058.0,464.0,3775.0,1067.0,13947.0,1307.122774133083,-1667.0,0.0,0,Tuensang,26.23347,94.81149
Tumakuru,349.0,47.0,46861.0,61461.0,7062.0,47663.0,396.0,163047.0,41173.48484848485,-46512.0,0.0,1,Tumakuru,13.34054,77.10157
Tuticorin,878.0,3.0,70729.0,69138.0,6827.0,37872.0,881.0,184566.0,20949.60272417707,-69851.0,0.0,0,,,
Udaipur,6073.0,192.0,95310.0,84468.0,8940.0,118552.0,6265.0,307270.0,4904.549082202713,-89237.0,0.0,0,Udaipur,24.58702,73.69845
Udalguri,1322.0,585.0,12995.0,9353.0,1380.0,18400.0,1907.0,42128.0,2209.124278972208,-11673.0,0.0,0,Udalguri,26.74475,92.09442
Udham Singh Nagar,985.0,18.0,89690.0,55177.0,15488.0,119377.0,1003.0,279732.0,27889.53140578265,-88705.0,0.0,1,Udham Singh Nagar,29.03757377,79.48406367
Udhampur,349.0,11.0,22370.0,23115.0,1172.0,15681.0,360.0,62338.0,17316.11111111111,-22021.0,0.0,0,Udhampur,32.91978,75.12841
Udupi,210.0,43.0,20130.0,14498.0,3944.0,23432.0,253.0,62004.0,24507.509881422924,-19920.0,0.0,0,Udupi,13.33694,74.74469
Ujjain,1763.0,95.0,86924.0,63027.0,10268.0,66440.0,1858.0,226659.0,12199.08503767492,-85161.0,0.0,0,Ujjain,23.18088,75.78813
Ukhrul,424.0,14.0,6363.0,7327.0,1903.0,13273.0,438.0,28866.0,6590.41095890411,-5939.0,0.0,0,Ukhrul,25.09836,94.36107
Umaria,906.0,34.0,19901.0,19360.0,3692.0,25933.0,940.0,68886.0,7328.297872340426,-18995.0,0.0,0,Umaria,23.53065,80.82789
Unakoti,179.0,27.0,11699.0,4034.0,499.0,3144.0,206.0,19376.0,9405.825242718449,-11520.0,0.0,0,Unakoti,24.19705283,92.03623462
Unnao,8943.0,367.0,92856.0,53534.0,9141.0,115402.0,9310.0,270933.0,2910.128893662728,-83913.0,0.0,0,Unnao,26.54706,80.48781
Uttar Dinajpur,13065.0,702.0,32927.0,60024.0,17663.0,257470.0,13767.0,368084.0,2673.6689184281254,-19862.0,0.0,0,Uttar Dinajpur,25.9403233,87.9870475
Uttar Kannad,221.0,30.0,23598.0,19558.0,4134.0,26497.0,251.0,73787.0,29397.21115537849,-23377.0,0.0,1,,,
Uttarkashi,149.0,5.0,13663.0,10805.0,1396.0,8625.0,154.0,34489.0,22395.454545454548,-13514.0,0.0,0,Uttarkashi,30.96856141,78.60750573
Vadodara,2433.0,545.0,72719.0,128698.0,10942.0,89085.0,2978.0,301444.0,10122.364002686369,-70286.0,0.0,0,Vadodara,22.30948,73.1799
Vaishali,9698.0,52.0,72298.0,95862.0,12462.0,143132.0,9750.0,323754.0,3320.553846153846,-62600.0,0.0,0,Vaishali,26.00457,85.07907
Valsad,1406.0,224.0,39767.0,44257.0,8741.0,39602.0,1630.0,132367.0,8120.674846625767,-38361.0,0.0,0,Valsad,20.60651,72.93136
Varanasi,13404.0,451.0,102481.0,79930.0,15174.0,144324.0,13855.0,341909.0,2467.766149404547,-89077.0,0.0,0,Varanasi,25.33285,82.99658
Vellore,1309.0,53.0,99121.0,92682.0,11895.0,77505.0,1362.0,281203.0,20646.32892804699,-97812.0,0.0,0,Vellore,12.91354,79.13249
Vidisha,2206.0,170.0,67687.0,57203.0,8962.0,40335.0,2376.0,174187.0,7331.102693602694,-65481.0,0.0,0,Vidisha,23.52142,77.80641
Vijayanagara,241.0,56.0,5607.0,14341.0,2066.0,12626.0,297.0,34640.0,11663.299663299664,-5366.0,0.0,0,,,
Vijayapura,3533.0,1459.0,66935.0,69164.0,15523.0,59878.0,4992.0,211500.0,4236.778846153846,-63402.0,0.0,0,Vijayapura,16.8282,75.71352
Vikarabad,506.0,2.0,7987.0,6236.0,8873.0,51676.0,508.0,74772.0,14718.897637795277,-7481.0,0.0,0,Vikarabad,17.25212196,77.74650056
Viluppuram,1696.0,3.0,108311.0,98424.0,12237.0,63119.0,1699.0,282091.0,16603.35491465568,-106615.0,0.0,0,Viluppuram,11.9379,79.5019
Virudhunagar,627.0,11.0,59765.0,61529.0,8761.0,48681.0,638.0,178736.0,28015.047021943577,-59138.0,0.0,1,Virudhunagar,9.58919,77.95368
Visakhapatnam,488.0,42.0,195385.0,115918.0,19864.0,137329.0,530.0,468496.0,88395.47169811321,-194897.0,0.0,2,Visakhapatnam,17.71984,83.26284
Vizianagaram,158.0,3.0,101296.0,58702.0,11069.0,67818.0,161.0,238885.0,148375.77639751552,-101138.0,0.0,2,Vizianagaram,18.11825,83.41798
Wanaparthy,401.0,0.0,4693.0,5281.0,4167.0,21013.0,401.0,35154.0,8766.583541147133,-4292.0,0.0,0,Wanaparthy,16.36144,78.06529
Warangal,761.0,2.0,71787.0,78750.0,10163.0,71404.0,763.0,232104.0,30419.92136304063,-71026.0,0.0,1,,,
Washim,304.0,45.0,44971.0,94488.0,1590.0,53279.0,349.0,194328.0,55681.37535816619,-44667.0,0.0,1,Washim,20.10821,77.14092
Wayanad,233.0,18.0,12585.0,24268.0,1687.0,16378.0,251.0,54918.0,21879.6812749004,-12352.0,0.0,0,Wayanad,11.71092904,76.08736764
West,111.0,5.0,1530.0,2054.0,194.0,2359.0,116.0,6137.0,5290.517241379311,-1419.0,0.0,0,,,
West Champaran,28807.0,1345.0,75507.0,91663.0,17334.0,217175.0,30152.0,401679.0,1332.180286548156,-46700.0,0.0,0,,,
West Delhi,4405.0,1009.0,71164.0,102078.0,25703.0,206102.0,5414.0,405047.0,7481.473956409309,-66759.0,0.0,0,West Delhi,28.65346411,77.0634152
West Garo Hills,6790.0,4540.0,8275.0,25195.0,1141.0,13829.0,11330.0,48440.0,427.5375110326567,-1485.0,0.0,0,West Garo Hills,25.62913335,90.19132358
West Godavari,343.0,24.0,139979.0,80435.0,14258.0,112548.0,367.0,347220.0,94610.35422343324,-139636.0,0.0,2,West Godavari,16.71311,81.10437
West Jaintia Hills,5636.0,3798.0,4302.0,1875.0,898.0,6562.0,9434.0,13637.0,144.55162179351282,1334.0,23.66926898509581,0,West Jaintia Hills,25.48379519,92.27506679
West Kameng,103.0,18.0,2967.0,3205.0,375.0,1484.0,121.0,8031.0,6637.190082644628,-2864.0,0.0,0,West Kameng,27.29530494,92.38639672
West Karbi Anglong,987.0,507.0,1084.0,2308.0,152.0,1299.0,1494.0,4843.0,324.1633199464525,-97.0,0.0,0,West Karbi Anglong,25.85290204,92.53384955
West Khasi Hills,8178.0,5310.0,3326.0,2728.0,1331.0,9213.0,13488.0,16598.0,123.05753262158956,4852.0,59.32990951332844,0,West Khasi Hills,25.57420408,91.11359169
West Sikkim,256.0,39.0,2262.0,1029.0,206.0,1815.0,295.0,5312.0,1800.677966101695,-2006.0,0.0,0,West Sikkim,27.33333,88.25
West Singhbhum,2589.0,48.0,58306.0,72880.0,4033.0,55272.0,2637.0,190491.0,7223.777019340158,-55717.0,0.0,0,West Singhbhum,22.5,85.5
West Tripura,764.0,75.0,36094.0,56166.0,3281.0,41065.0,839.0,136606.0,16282.002383790226,-35330.0,0.0,0,,,
Wokha,410.0,30.0,1973.0,4954.0,132.0,1773.0,440.0,8832.0,2007.272727272728,-1563.0,0.0,0,Wokha,26.09274,94.25621
YSR District,465.0,35.0,120310.0,59094.0,15235.0,96618.0,500.0,291257.0,58251.4,-119845.0,0.0,1,,,
Yadadri.,205.0,1.0,6847.0,5827.0,3489.0,36383.0,206.0,52546.0,25507.76699029126,-6642.0,0.0,1,,,
Yadgir,1300.0,111.0,32589.0,28313.0,7003.0,26331.0,1411.0,94236.0,6678.667611622963,-31289.0,0.0,0,Yadgir,16.76094,77.13667
Yamuna Nagar,110.0,8.0,33592.0,55136.0,6421.0,46460.0,118.0,141609.0,120007.62711864406,-33482.0,0.0,2,,,
Yavatmal,1339.0,201.0,92600.0,234587.0,5104.0,191008.0,1540.0,523299.0,33980.454545454544,-91261.0,0.0,1,Yavatmal,20.39324,78.13201
Zunheboto,583.0,47.0,1477.0,6486.0,221.0,2218.0,630.0,10402.0,1651.1111111111113,-894.0,0.0,0,Zunheboto,26.01599,94.52757
yadgir,116.0,0.0,856.0,3425.0,217.0,1882.0,116.0,6380.0,5500.0,-740.0,0.0,0,,,
